#MAP=belgium
#PROTOCOL=NMEA/FLARM
#
$
#
GNRMC,074317.00,A,5054.80158,N,00401.93249,E,15.782,171.27,120223,,,A*4D
$GNVTG,171.27,T,,M,15.782,N,29.228,K,A*2B
$GNGGA,074317.00,5054.80158,N,00401.93249,E,1,04,3.69,-0.7,M,46.1,M,,*65
$GNGSA,A,3,05,13,15,23,,,,,,,,,4.63,3.69,2.80*19
$GNGSA,A,3,,,,,,,,,,,,,4.63,3.69,2.80*1B
$GPGSV,3,1,09,02,02,259,,05,41,206,29,09,,,12,13,87,335,31*43
$GPGSV,3,2,09,15,56,293,23,18,,,12,20,15,186,26,23,15,323,17*49
$GPGSV,3,3,09,24,14,253,25*40
$GLGSV,1,1,00*65
$GNGLL,5054
#
.80158,N,00401.93249,E,074317.00,A,A*71

#
$GNRMC,074318.00,A,5054.79500,N,00401.93036,E,17.362,178.72,120223,,,A*46
$GNVTG,178.72,T,,M,17.362,N,32.155,K,A*29
$GNGGA,074318.00,5054.79500,N,00401.93036,E,1,04,3.69,0.0,M,46.1,M,,*45
$GNGSA,A,3,05,13,15,23,,,,,,,,,4.63,3.69,2.80*19
$GNGSA,A,3,,,,,,,,,,,,,4.63,3.69,2.80*1B
$GPGSV,3,1,09,02,02,259,,05,41,206,27,09,,,13,13,87,335,30*4D
$GPGSV,3,2,09,15,56,293,20,18,,,18,20,15,186,25,23,15,323,20*47
$GPGSV,3,A,09,24,14,253,25*40
$GLGSV,1,1,00*65
$GNGLL,5054.79
#
500,N,00401.93036,E,074318.00,A,A*7B

#
$GNRMC,074319.00,A,5054.78903,N,00401.92880,E,18.194,181.00,120223,,,A*4A
$GNVTG,181.00,T,,M,18.194,N,33.695,K,A*24
$GNGGA,074319.00,5054.78903,N,00401.92880,E,1,04,3.69,-0.1,M,46.1,M,,*62
$GNGSA,A,3,05,13,15,23,,,,,,,,,4.63,3.69,2.80*19
$GNGSA,A,3,,,,,,,,,,,,,4.63,3.69,2.80*1B
$GPGSV,3,1,09,02,02,259,,05,41,206,24,09,,,14,13,87,335,29*41
$GPGSV,3,2,09,15,56,293,20,18,,,18,20,15,186,24,23,15,323,22*44
$GPGSV,3,3,09,24,14,253,21*44
$GLGSV,1,1,00*65
$GNGLL,5054.7
#
8903,N,00401.92880,E,074319.00,A,A*70

#
$GNRMC,074320.00,A,5054.78258,N,00401.92709,E,19.300,182.70,120223,,,A*41
$GNVTG,182.70,T,,M,19.300,N,35.744,K,A*25
$GNGGA,074320.00,5054.78258,N,00401.92709,E,1,04,3.69,1.0,M,46.1,M,,*4E
$GNGSA,A,3,05,13,15,23,,,,,,,,,4.63,3.69,2.80*19
$GNGSA,A,3,,,,,,,,,,,,,4.63,3.69,2.80*1B
$GPGSV,3,1,09,02,02,259,,05,41,206,21,09,,,14,13,87,335,29*44
$GPGSV,3,2,09,15,56,293,18,18,,,14,20,15,186,23,23,15,323,21*47
$GPGSV,3,3,09,24,14,253,21*44
$GLGSV,1,1,00*65
$GNGLL,5054.78258
#
,N,00401.92709,E,074320.00,A,A*71

#
$GNRMC,074321.00,A,5054.77526,N,00401.92458,E,22.774,185.96,120223,,,A*46
$GNVTG,185.96,T,,M,22.774,N,42.177,K,A*23
$GNGGA,074321.00,5054.77526,N,00401.92458,E,1,04,3.69,1.8,M,46.1,M,,*41
$GNGSA,A,3,05,13,15,23,,,,,,,,,4.63,3.69,2.80*19
$GNGSA,A,3,,,,,,,,,,,,,4.63,3.69,2.80*1B
$GPGSV,3,1,09,02,02,259,,05,41,206,21,09,,,14,13,87,335,28*45
$GPGSV,3,2,09,15,56,293,17,18,,,09,20,15,186,23,23,15,323,19*4F
$GPGSV,3,3,09,24,14,253,19*4F
$GLGSV,1,1,00*65
$GNGLL,5054.77526
#
,N,00401.92458,E,074321.00,A,A*76

#
$GNRMC,074322.00,A,5054.76800,N,00401.92318,E,25.438,186.05,120223,,,A*4B
$GNVTG,186.05,T,,M,25.438,N,47.111,K,A*23
$GNGGA,074322.00,5054.76800,N,00401.92318,E,1,04,3.69,2.4,M,46.1,M,,*46
$GNGSA,A,3,05,13,15,23,,,,,,,,,4.63,3.69,2.80*19
$GNGSA,A,3,,,,,,,,,,,,,4.63,3.69,2.80*1B
$GPGSV,2,1,07,02,02,259,,05,41,206,22,13,87,335,28,15,56,293,19*72
$GPGSV,2,2,07,20,15,186,24,23,15,323,15,24,14,253,19*4D
$GLGSV,1,1,00*65
$GNGLL,5054.76800,N,00401.92318,E,074322.00,A,A*7E

#
$
#
GNRMC,074323.00,A,5054.76094,N,00401.92307,E,26.137,184.08,120223,,,A*47
$GNVTG,184.08,T,,M,26.137,N,48.406,K,A*29
$GNGGA,074323.00,5054.76094,N,00401.92307,E,1,04,3.69,2.8,M,46.1,M,,*40
$GNGSA,A,3,05,13,15,23,,,,,,,,,4.63,3.69,2.80*19
$GNGSA,A,3,,,,,,,,,,,,,4.63,3.69,2.80*1B
$GPGSV,2,1,07,02,02,259,,05,41,206,21,13,87,335,28,15,56,293,23*78
$GPGSV,2,2,07,20,15,186,24,23,15,323,14,24,14,253,19*4C
$GLGSV,1,1,00*65
$GNGLL,5054.76094,N,00401.92307,E,074323.00,A,A*74

#
$
#
GNRMC,074324.00,A,5054.75353,N,00401.92403,E,26.673,180.32,120223,,,A*42
$GNVTG,180.32,T,,M,26.673,N,49.398,K,A*22
$GNGGA,074324.00,5054.75353,N,00401.92403,E,1,04,3.69,2.7,M,46.1,M,,*40
$GNGSA,A,3,05,13,15,23,,,,,,,,,4.63,3.69,2.80*19
$GNGSA,A,3,,,,,,,,,,,,,4.63,3.69,2.80*1B
$GPGSV,2,1,07,02,02,259,,05,41,206,20,13,87,335,28,15,56,293,23*79
$GPGSV,2,2,07,20,15,186,23,23,15,323,12,24,14,253,18*4C
$GLGSV,1,1,00*65
$GNGLL,5054.75353,N,00401.92403,E,074324.00,A,A*7B

#
$
#
GNRMC,074325.00,A,5054.74634,N,00401.92471,E,26.363,178.67,120223,,,A*40
$GNVTG,178.67,T,,M,26.363,N,48.824,K,A*2C
$GNGGA,074325.00,5054.74634,N,00401.92471,E,1,04,3.69,3.1,M,46.1,M,,*46
$GNGSA,A,3,05,13,15,23,,,,,,,,,4.63,3.69,2.80*19
$GNGSA,A,3,,,,,,,,,,,,,4.63,3.69,2.80*1B
$GPGSV,2,1,07,02,02,259,,05,41,206,17,13,87,335,28,15,56,293,22*7C
$GPGSV,2,2,07,20,15,186,21,23,15,323,14,24,14,253,17*47
$GLGSV,1,1,00*65
$GNGLL,5054.74634,N,00401.92471,E,074325.00,A,A*7A

#
$G
#
NRMC,074326.00,A,5054.73752,N,00401.92432,E,29.399,181.11,120223,,,A*4F
$GNVTG,181.11,T,,M,29.399,N,54.447,K,A*25
$GNGGA,074326.00,5054.73752,N,00401.92432,E,1,04,3.69,2.7,M,46.1,M,,*43
$GNGSA,A,3,05,13,15,23,,,,,,,,,4.63,3.69,2.80*19
$GNGSA,A,3,,,,,,,,,,,,,4.63,3.69,2.80*1B
$GPGSV,2,1,07,02,02,259,,05,41,206,17,13,87,335,28,15,56,293,23*7D
$GPGSV,2,2,07,20,15,186,19,23,15,323,13,24,14,253,17*4B
$GLGSV,1,1,00*65
$GNGLL,5054.73752,N,00401.92432,E,074326.00,A,A*78

#
$GN
#
RMC,074327.00,A,5054.72807,N,00401.92408,E,32.003,181.25,120223,,,A*44
$GNVTG,181.25,T,,M,32.003,N,59.269,K,A*2F
$GNGGA,074327.00,5054.72807,N,00401.92408,E,1,04,3.69,2.6,M,46.1,M,,*44
$GNGSA,A,3,05,13,15,23,,,,,,,,,4.63,3.69,2.80*19
$GNGSA,A,3,,,,,,,,,,,,,4.63,3.69,2.80*1B
$GPGSV,2,1,07,02,02,259,,05,41,206,17,13,87,335,28,15,56,293,22*7C
$GPGSV,2,2,07,20,15,186,15,23,15,323,17,24,14,253,19*4D
$GLGSV,1,1,00*65
$GNGLL,5054.72807,N,00401.92408,E,074327.00,A,A*7E

#
$GNR
#
MC,074328.00,V,,,,,,,120223,,,N*69
$GNVTG,,,,,,,,,N*2E
$GNGGA,074328.00,,,,,0,03,3.25,,,,,,*45
$GNGSA,A,1,05,13,23,,,,,,,,,,3.40,3.25,1.00*1A
$GNGSA,A,1,,,,,,,,,,,,,3.40,3.25,1.00*1C
$GPGSV,2,1,07,02,02,259,,05,41,206,17,13,87,335,28,15,56,293,24*7A
$GPGSV,2,2,07,20,15,186,10,23,15,323,19,24,14,253,22*4E
$GLGSV,1,1,00*65
$GNGLL,,,,,074328.00,V,N*5E

#
$GNRMC
#
,074329.00,V,,,,,,,120223,,,N*68
$GNVTG,,,,,,,,,N*2E
$GNGGA,074329.00,,,,,0,03,3.24,,,,,,*45
$GNGSA,A,1,05,13,23,,,,,,,,,,3.40,3.24,1.00*1B
$GNGSA,A,1,,,,,,,,,,,,,3.40,3.24,1.00*1D
$GPGSV,2,1,07,02,02,259,,05,41,206,19,13,87,337,28,15,56,293,22*70
$GPGSV,2,2,07,20,15,186,,23,15,323,20,24,14,253,24*43
$GLGSV,1,1,00*65
$GNGLL,,,,,074329.00,V,N*5F

#
$GNRMC
#
,074330.00,V,,,,,,,120223,,,N*60
$GNVTG,,,,,,,,,N*2E
$GNGGA,074330.00,,,,,0,03,3.24,,,,,,*4D
$GNGSA,A,1,05,13,23,,,,,,,,,,3.39,3.24,1.00*15
$GNGSA,A,1,,,,,,,,,,,,,3.39,3.24,1.00*13
$GPGSV,2,1,07,02,02,259,,05,41,206,19,13,87,337,28,15,56,293,21*73
$GPGSV,2,2,07,20,15,186,,23,15,323,21,24,14,253,23*45
$GLGSV,1,1,00*65
$GNGLL,,,,,074330.00,V,N*57

#
$GNRMC,0
#
74331.00,V,,,,,,,120223,,,N*61
$GNVTG,,,,,,,,,N*2E
$GNGGA,074331.00,,,,,0,03,3.24,,,,,,*4C
$GNGSA,A,1,05,13,23,,,,,,,,,,3.39,3.24,1.00*15
$GNGSA,A,1,,,,,,,,,,,,,3.39,3.24,1.00*13
$GPGSV,2,1,07,02,02,259,,05,41,206,22,13,87,337,27,15,56,293,20*75
$GPGSV,2,2,07,20,15,186,27,23,15,323,21,24,14,253,21*42
$GLGSV,1,1,00*65
$GNGLL,,,,,074331.00,V,N*56

#
$GNRMC,0743
#
32.00,V,,,,,,,120223,,,N*62
$GNVTG,,,,,,,,,N*2E
$GNGGA,074332.00,,,,,0,00,99.99,,,,,,*79
$GNGSA,A,1,,,,,,,,,,,,,99.99,99.99,99.99*2E
$GNGSA,A,1,,,,,,,,,,,,,99.99,99.99,99.99*2E
$GPGSV,2,1,07,02,02,259,,05,41,206,24,13,87,337,27,15,56,293,21*72
$GPGSV,2,2,07,20,15,186,24,23,15,323,20,24,14,253,18*4A
$GLGSV,1,1,00*65
$GNGLL,,,,,074332.00,V,N*55

#
$GNRMC,074
#
333.00,V,,,,,,,120223,,,N*63
$GNVTG,,,,,,,,,N*2E
$GNGGA,074333.00,,,,,0,00,99.99,,,,,,*78
$GNGSA,A,1,,,,,,,,,,,,,99.99,99.99,99.99*2E
$GNGSA,A,1,,,,,,,,,,,,,99.99,99.99,99.99*2E
$GPGSV,2,1,08,02,02,259,,05,41,206,23,09,,,23,13,87,337,27*4E
$GPGSV,2,2,08,15,56,293,22,20,15,186,20,23,15,323,17,24,14,253,13*71
$GLGSV,1,1,00*65
$GNGLL,,,,,074333.00,V,N*54

#
$GNRMC,0743
#
34.00,V,,,,,,,120223,,,N*64
$GNVTG,,,,,,,,,N*2E
$GNGGA,074334.00,,,,,0,03,4.65,,,,,,*4B
$GNGSA,A,1,13,15,23,,,,,,,,,,4.76,4.65,1.00*1A
$GNGSA,A,1,,,,,,,,,,,,,4.76,4.65,1.00*1D
$GPGSV,2,1,08,02,02,259,,05,41,206,22,09,,,21,13,87,337,28*42
$GPGSV,2,2,08,15,56,293,22,20,15,186,19,23,15,323,14,24,14,253,15*7E
$GLGSV,1,1,00*65
$GNGLL,,,,,074334.00,V,N*53

#
$GNRMC,074335
#
.00,V,,,,,,,120223,,,N*65
$GNVTG,,,,,,,,,N*2E
$GNGGA,074335.00,,,,,0,03,4.65,,,,,,*4A
$GNGSA,A,1,13,15,23,,,,,,,,,,4.76,4.65,1.00*1A
$GNGSA,A,1,,,,,,,,,,,,,4.76,4.65,1.00*1D
$GPGSV,2,1,08,02,02,259,,05,41,206,20,10,,,20,13,87,337,28*49
$GPGSV,2,2,08,15,56,293,22,20,15,186,20,23,15,323,11,24,15,253,15*70
$GLGSV,1,1,00*65
$GNGLL,,,,,074335.00,V,N*52

#
$GNRMC,074336.0
#
0,V,,,,,,,120223,,,N*66
$GNVTG,,,,,,,,,N*2E
$GNGGA,074336.00,,,,,0,00,99.99,,,,,,*7D
$GNGSA,A,1,,,,,,,,,,,,,99.99,99.99,99.99*2E
$GNGSA,A,1,,,,,,,,,,,,,99.99,99.99,99.99*2E
$GPGSV,2,1,07,02,02,259,,05,41,206,23,13,87,337,28,15,56,293,22*79
$GPGSV,2,2,07,20,15,186,19,23,15,323,09,24,15,253,13*45
$GLGSV,1,1,00*65
$GNGLL,,,,,074336.00,V,N*51

#
$GNRMC,074337.00,
#
V,,,,,,,120223,,,N*67
$GNVTG,,,,,,,,,N*2E
$GNGGA,074337.00,,,,,0,00,99.99,,,,,,*7C
$GNGSA,A,1,,,,,,,,,,,,,99.99,99.99,99.99*2E
$GNGSA,A,1,,,,,,,,,,,,,99.99,99.99,99.99*2E
$GPGSV,3,1,09,02,02,259,,04,,,12,05,41,206,24,10,,,21*7B
$GPGSV,3,2,09,13,87,337,28,15,56,293,22,20,15,186,17,23,15,323,09*7F
$GPGSV,3,3,09,24,15,253,09*4F
$GLGSV,1,1,00*65
$GNGLL,,,,,074337.00,V,N*50

#
$GNRMC,074338.00
#
,V,,,,,,,120223,,,N*68
$GNVTG,,,,,,,,,N*2E
$GNGGA,074338.00,,,,,0,03,3.23,,,,,,*42
$GNGSA,A,1,05,13,15,,,,,,,,,,3.39,3.23,1.00*17
$GNGSA,A,1,,,,,,,,,,,,,3.39,3.23,1.00*14
$GPGSV,3,1,09,02,02,259,,04,,,14,05,41,206,24,10,,,19*76
$GPGSV,3,2,09,13,87,337,27,15,56,293,21,20,15,186,12,23,15,323,08*77
$GPGSV,3,3,09,24,15,253,10*47
$GLGSV,1,1,00*65
$GNGLL,,,,,074338.00,V,N*5F

#
$GNRMC,074339.00,
#
V,,,,,,,120223,,,N*69
$GNVTG,,,,,,,,,N*2E
$GNGGA,074339.00,,,,,0,03,3.23,,,,,,*43
$GNGSA,A,1,05,13,15,,,,,,,,,,3.38,3.23,1.00*16
$GNGSA,A,1,,,,,,,,,,,,,3.38,3.23,1.00*15
$GPGSV,3,1,09,02,02,259,,04,,,16,05,41,206,22,10,,,17*7C
$GPGSV,3,2,09,13,87,337,27,15,56,293,20,20,15,186,11,23,15,323,08*75
$GPGSV,3,3,09,24,15,253,11*46
$GLGSV,1,1,00*65
$GNGLL,,,,,074339.00,V,N*5E

#
$GNRMC,074340.00,
#
V,,,,,,,120223,,,N*67
$GNVTG,,,,,,,,,N*2E
$GNGGA,074340.00,,,,,0,03,3.23,,,,,,*4D
$GNGSA,A,1,05,13,15,,,,,,,,,,3.38,3.23,1.00*16
$GNGSA,A,1,,,,,,,,,,,,,3.38,3.23,1.00*15
$GPGSV,3,1,09,02,02,259,,04,,,17,05,41,206,21,10,,,15*7C
$GPGSV,3,2,09,13,87,337,27,15,56,293,19,20,15,186,15,23,15,323,10*72
$GPGSV,3,3,09,24,15,253,10*47
$GLGSV,1,1,00*65
$GNGLL,,,,,074340.00,V,N*50

#
$GNRMC,074341.00,V,,,,,,
#
,120223,,,N*66
$GNVTG,,,,,,,,,N*2E
$GNGGA,074341.00,,,,,0,03,3.23,,,,,,*4C
$GNGSA,A,1,05,13,15,,,,,,,,,,3.38,3.23,1.00*16
$GNGSA,A,1,,,,,,,,,,,,,3.38,3.23,1.00*15
$GPGSV,2,1,08,02,02,259,,05,41,206,22,10,,,14,13,87,337,27*43
$GPGSV,2,2,08,15,56,293,19,20,15,186,20,23,15,323,09,24,15,253,12*76
$GLGSV,1,1,00*65
$GNGLL,,,,,074341.00,V,N*51

#
$GNRMC,074342.00,A,5
#
054.56970,N,00401.92413,E,40.443,180.66,120223,,,A*49
$GNVTG,180.66,T,,M,40.443,N,74.900,K,A*27
$GNGGA,074342.00,5054.56970,N,00401.92413,E,1,04,3.68,5.9,M,46.1,M,,*43
$GNGSA,A,3,05,13,15,23,,,,,,,,,4.63,3.68,2.81*19
$GNGSA,A,3,,,,,,,,,,,,,4.63,3.68,2.81*1B
$GPGSV,2,1,08,02,02,259,,05,41,206,23,10,,,14,13,87,337,28*4D
$GPGSV,2,2,08,15,56,293,20,20,15,186,22,23,15,323,15,24,15,253,17*76
$GLGSV,1,1,00*65
$GNGLL,5054.56970,N,00401.92413,E,074342.00,A,A*70

#
$GNRMC,074343.00,A,5
#
054.55800,N,00401.92570,E,41.350,178.74,120223,,,A*49
$GNVTG,178.74,T,,M,41.350,N,76.580,K,A*21
$GNGGA,074343.00,5054.55800,N,00401.92570,E,1,04,3.68,6.0,M,46.1,M,,*49
$GNGSA,A,3,05,13,15,23,,,,,,,,,4.63,3.68,2.81*19
$GNGSA,A,3,,,,,,,,,,,,,4.63,3.68,2.81*1B
$GPGSV,2,1,07,02,02,259,,05,41,206,25,13,87,337,28,15,56,293,22*7F
$GPGSV,2,2,07,20,15,186,23,23,15,323,22,24,15,253,20*45
$GLGSV,1,1,00*65
$GNGLL,5054.55800,N,00401.92570,E,074343.00,A,A*70

#
$GNRMC,074344.00,A,
#
5054.54635,N,00401.92686,E,41.413,178.03,120223,,,A*4D
$GNVTG,178.03,T,,M,41.413,N,76.697,K,A*24
$GNGGA,074344.00,5054.54635,N,00401.92686,E,1,04,3.68,6.0,M,46.1,M,,*4D
$GNGSA,A,3,05,13,15,23,,,,,,,,,4.63,3.68,2.81*19
$GNGSA,A,3,,,,,,,,,,,,,4.63,3.68,2.81*1B
$GPGSV,2,1,07,02,02,259,,05,41,206,25,13,87,337,28,15,56,293,23*7E
$GPGSV,2,2,07,20,15,186,23,23,15,323,22,24,15,253,19*4F
$GLGSV,1,1,00*65
$GNGLL,5054.54635,N,00401.92686,E,074344.00,A,A*74

#
$GNRMC,074345.00,A
#
,5054.53470,N,00401.92780,E,41.379,177.88,120223,,,A*48
$GNVTG,177.88,T,,M,41.379,N,76.633,K,A*2D
$GNGGA,074345.00,5054.53470,N,00401.92780,E,1,04,3.68,6.2,M,46.1,M,,*4D
$GNGSA,A,3,05,13,15,23,,,,,,,,,4.63,3.68,2.81*19
$GNGSA,A,3,,,,,,,,,,,,,4.63,3.68,2.81*1B
$GPGSV,2,1,07,02,02,259,,05,41,206,25,13,87,337,28,15,56,293,23*7E
$GPGSV,2,2,07,20,15,186,23,23,15,323,19,24,15,253,18*46
$GLGSV,1,1,00*65
$GNGLL,5054.53470,N,00401.92780,E,074345.00,A,A*76

#
$GNRMC,074346.00,A,5054.522
#
81,N,00401.92868,E,42.147,178.07,120223,,,A*4F
$GNVTG,178.07,T,,M,42.147,N,78.056,K,A*22
$GNGGA,074346.00,5054.52281,N,00401.92868,E,1,04,3.68,6.4,M,46.1,M,,*48
$GNGSA,A,3,05,13,15,23,,,,,,,,,4.63,3.68,2.81*19
$GNGSA,A,3,,,,,,,,,,,,,4.63,3.68,2.81*1B
$GPGSV,2,1,07,02,02,259,,05,41,206,25,13,87,337,28,15,56,293,23*7E
$GPGSV,2,2,07,20,15,186,24,23,15,323,17,24,15,253,20*44
$GLGSV,1,1,00*65
$GNGLL,5054.52281,N,00401.92868,E,074346.00,A,A*75

#
$GNRMC,074347.00,A,5054.5
#
1107,N,00401.92925,E,41.743,178.15,120223,,,A*4A
$GNVTG,178.15,T,,M,41.743,N,77.308,K,A*27
$GNGGA,074347.00,5054.51107,N,00401.92925,E,1,04,3.68,7.0,M,46.1,M,,*4A
$GNGSA,A,3,05,13,15,23,,,,,,,,,4.63,3.68,2.81*19
$GNGSA,A,3,,,,,,,,,,,,,4.63,3.68,2.81*1B
$GPGSV,2,1,07,02,02,259,,05,41,206,25,13,87,337,29,15,56,293,23*7F
$GPGSV,2,2,07,20,15,186,25,23,15,323,20,24,15,253,18*4A
$GLGSV,1,1,00*65
$GNGLL,5054.51107,N,00401.92925,E,074347.00,A,A*72

#
$GNRMC,074348.00,A,5054.499
#
10,N,00401.93011,E,42.260,177.93,120223,,,A*4B
$GNVTG,177.93,T,,M,42.260,N,78.266,K,A*27
$GNGGA,074348.00,5054.49910,N,00401.93011,E,1,04,3.68,7.6,M,46.1,M,,*4B
$GNGSA,A,3,05,13,15,23,,,,,,,,,4.63,3.68,2.81*19
$GNGSA,A,3,,,,,,,,,,,,,4.63,3.68,2.81*1B
$GPGSV,2,1,07,02,02,259,,05,41,206,27,13,87,337,29,15,56,293,21*7F
$GPGSV,2,2,07,20,15,186,26,23,15,323,22,24,15,253,21*41
$GLGSV,1,1,00*65
$GNGLL,5054.49910,N,00401.93011,E,074348.00,A,A*75

#
$GNRMC,074349.00,A,5054.4873
#
2,N,00401.93059,E,42.076,178.35,120223,,,A*4F
$GNVTG,178.35,T,,M,42.076,N,77.925,K,A*22
$GNGGA,074349.00,5054.48732,N,00401.93059,E,1,04,3.68,8.0,M,46.1,M,,*40
$GNGSA,A,3,05,13,15,23,,,,,,,,,4.63,3.68,2.81*19
$GNGSA,A,3,,,,,,,,,,,,,4.63,3.68,2.81*1B
$GPGSV,2,1,07,02,02,259,,05,41,206,27,13,87,337,29,15,56,293,20*7E
$GPGSV,2,2,07,20,15,186,25,23,15,323,22,24,15,253,21*42
$GLGSV,1,1,00*65
$GNGLL,5054.48732,N,00401.93059,E,074349.00,A,A*77

#
$GNRMC,074350.00,A,5054.47559
#
,N,00401.93104,E,42.039,178.65,120223,,,A*40
$GNVTG,178.65,T,,M,42.039,N,77.857,K,A*28
$GNGGA,074350.00,5054.47559,N,00401.93104,E,1,04,3.68,8.6,M,46.1,M,,*47
$GNGSA,A,3,05,13,15,23,,,,,,,,,4.63,3.68,2.81*19
$GNGSA,A,3,,,,,,,,,,,,,4.63,3.68,2.81*1B
$GPGSV,2,1,07,02,02,259,,05,41,206,27,13,87,339,29,15,56,293,19*7A
$GPGSV,2,2,07,20,15,186,26,23,15,323,21,24,15,253,20*43
$GLGSV,1,1,00*65
$GNGLL,5054.47559,N,00401.93104,E,074350.00,A,A*76

#
$GNRMC,074351.00,A,5054.46369,
#
N,00401.93178,E,42.377,177.97,120223,,,A*45
$GNVTG,177.97,T,,M,42.377,N,78.482,K,A*28
$GNGGA,074351.00,5054.46369,N,00401.93178,E,1,04,3.68,9.4,M,46.1,M,,*4A
$GNGSA,A,3,05,13,15,23,,,,,,,,,4.63,3.68,2.81*19
$GNGSA,A,3,,,,,,,,,,,,,4.63,3.68,2.81*1B
$GPGSV,2,1,07,02,02,259,,05,41,206,26,13,87,339,29,15,56,293,18*7A
$GPGSV,2,2,07,20,15,186,25,23,15,323,21,24,15,253,18*4B
$GLGSV,1,1,00*65
$GNGLL,5054.46369,N,00401.93178,E,074351.00,A,A*78

#
$GNRMC,074352.00,A,5054.45183,
#
N,00401.93289,E,42.294,177.89,120223,,,A*4D
$GNVTG,177.89,T,,M,42.294,N,78.328,K,A*2C
$GNGGA,074352.00,5054.45183,N,00401.93289,E,1,04,3.68,9.7,M,46.1,M,,*42
$GNGSA,A,3,05,13,15,23,,,,,,,,,4.63,3.68,2.81*19
$GNGSA,A,3,,,,,,,,,,,,,4.63,3.68,2.81*1B
$GPGSV,2,1,07,02,02,259,,05,41,206,26,13,87,339,29,15,56,293,18*7A
$GPGSV,2,2,07,20,15,186,25,23,15,323,21,24,15,253,18*4B
$GLGSV,1,1,00*65
$GNGLL,5054.45183,N,00401.93289,E,074352.00,A,A*73

#
$GNRMC,074353.00,A,5054.43978,N,
#
00401.93436,E,42.706,176.62,120223,,,A*4E
$GNVTG,176.62,T,,M,42.706,N,79.092,K,A*25
$GNGGA,074353.00,5054.43978,N,00401.93436,E,1,04,3.68,10.2,M,46.1,M,,*76
$GNGSA,A,3,05,13,15,23,,,,,,,,,4.63,3.68,2.81*19
$GNGSA,A,3,,,,,,,,,,,,,4.63,3.68,2.81*1B
$GPGSV,2,1,07,02,02,259,,05,41,206,26,13,87,339,29,15,56,293,19*7B
$GPGSV,2,2,07,20,15,186,25,23,15,323,23,24,15,253,18*49
$GLGSV,1,1,00*65
$GNGLL,5054.43978,N,00401.93436,E,074353.00,A,A*7A

#
$GNRMC,074354.00,A,5054.42773,N
#
,00401.93543,E,42.896,176.14,120223,,,A*49
$GNVTG,176.14,T,,M,42.896,N,79.443,K,A*2A
$GNGGA,074354.00,5054.42773,N,00401.93543,E,1,04,3.68,11.1,M,46.1,M,,*74
$GNGSA,A,3,05,13,15,23,,,,,,,,,4.63,3.68,2.81*19
$GNGSA,A,3,,,,,,,,,,,,,4.63,3.68,2.81*1B
$GPGSV,2,1,07,02,02,259,,05,41,206,25,13,87,339,29,15,56,293,19*78
$GPGSV,2,2,07,20,15,186,25,23,15,323,22,24,15,253,19*49
$GLGSV,1,1,00*65
$GNGLL,5054.42773,N,00401.93543,E,074354.00,A,A*7A

#
$GNRMC,074355.00,A,5054.41565,N,00
#
401.93678,E,42.761,176.14,120223,,,A*42
$GNVTG,176.14,T,,M,42.761,N,79.194,K,A*22
$GNGGA,074355.00,5054.41565,N,00401.93678,E,1,04,3.68,11.8,M,46.1,M,,*71
$GNGSA,A,3,05,13,15,23,,,,,,,,,4.63,3.68,2.81*19
$GNGSA,A,3,,,,,,,,,,,,,4.63,3.68,2.81*1B
$GPGSV,2,1,07,02,02,259,,05,41,206,26,13,87,339,29,15,56,293,19*7B
$GPGSV,2,2,07,20,15,186,25,23,15,323,25,24,15,253,18*4F
$GLGSV,1,1,00*65
$GNGLL,5054.41565,N,00401.93678,E,074355.00,A,A*76

#
$GNRMC,074356.00,A,5054.40360,N,00401.93
#
767,E,42.553,176.61,120223,,,A*4D
$GNVTG,176.61,T,,M,42.553,N,78.809,K,A*2F
$GNGGA,074356.00,5054.40360,N,00401.93767,E,1,04,3.68,12.7,M,46.1,M,,*73
$GNGSA,A,3,05,13,15,23,,,,,,,,,4.63,3.68,2.81*19
$GNGSA,A,3,,,,,,,,,,,,,4.63,3.68,2.81*1B
$GPGSV,2,1,07,02,02,259,,05,41,206,26,13,87,339,29,15,56,293,19*7B
$GPGSV,2,2,07,20,15,186,25,23,15,323,26,24,15,253,19*4D
$GLGSV,1,1,00*65
$GNGLL,5054.40360,N,00401.93767,E,074356.00,A,A*78

#
$GNRMC,074357.00,A,5054.39155,N,0040
#
1.93865,E,42.558,177.02,120223,,,A*44
$GNVTG,177.02,T,,M,42.558,N,78.818,K,A*20
$GNGGA,074357.00,5054.39155,N,00401.93865,E,1,04,3.68,13.3,M,46.1,M,,*70
$GNGSA,A,3,05,13,15,23,,,,,,,,,4.63,3.68,2.81*19
$GNGSA,A,3,,,,,,,,,,,,,4.63,3.68,2.81*1B
$GPGSV,2,1,07,02,02,259,,05,41,206,25,13,87,339,28,15,56,293,19*79
$GPGSV,2,2,07,20,15,186,25,23,15,323,25,24,15,253,20*44
$GLGSV,1,1,00*65
$GNGLL,5054.39155,N,00401.93865,E,074357.00,A,A*7E

#
$GNRMC,074358.00,A,5054.37945,N,00401
#
.93806,E,42.745,178.50,120223,,,A*4F
$GNVTG,178.50,T,,M,42.745,N,79.163,K,A*22
$GNGGA,074358.00,5054.37945,N,00401.93806,E,1,04,3.68,14.8,M,46.1,M,,*71
$GNGSA,A,3,05,13,15,23,,,,,,,,,4.63,3.68,2.81*19
$GNGSA,A,3,,,,,,,,,,,,,4.63,3.68,2.81*1B
$GPGSV,2,1,07,02,02,259,,05,41,206,23,13,87,339,28,15,56,293,19*7F
$GPGSV,2,2,07,20,15,186,24,23,15,323,24,24,15,253,20*44
$GLGSV,1,1,00*65
$GNGLL,5054.37945,N,00401.93806,E,074358.00,A,A*73

#
$GNRMC,074359.00,A,5054.36742,N,00401.
#
93865,E,42.828,178.37,120223,,,A*46
$GNVTG,178.37,T,,M,42.828,N,79.318,K,A*29
$GNGGA,074359.00,5054.36742,N,00401.93865,E,1,04,3.68,15.4,M,46.1,M,,*70
$GNGSA,A,3,05,13,15,23,,,,,,,,,4.63,3.68,2.81*19
$GNGSA,A,3,,,,,,,,,,,,,4.63,3.68,2.81*1B
$GPGSV,2,1,07,02,02,259,,05,41,206,23,13,87,339,27,15,56,293,19*70
$GPGSV,2,2,07,20,15,186,23,23,15,323,23,24,15,253,20*44
$GLGSV,1,1,00*65
$GNGLL,5054.36742,N,00401.93865,E,074359.00,A,A*7F

#
$GNRMC,074400.00,A,5054.35534,N,00401.9
#
3828,E,42.993,179.25,120223,,,A*47
$GNVTG,179.25,T,,M,42.993,N,79.624,K,A*20
$GNGGA,074400.00,5054.35534,N,00401.93828,E,1,04,3.68,16.6,M,46.1,M,,*73
$GNGSA,A,3,05,13,15,23,,,,,,,,,4.63,3.68,2.81*19
$GNGSA,A,3,,,,,,,,,,,,,4.63,3.68,2.81*1B
$GPGSV,2,1,07,02,02,259,,05,41,206,23,13,87,339,26,15,56,293,20*7B
$GPGSV,2,2,07,20,15,186,23,23,15,323,22,24,15,253,20*45
$GLGSV,1,1,00*65
$GNGLL,5054.35534,N,00401.93828,E,074400.00,A,A*7D

#
$GNRMC,074401.00,A,5054.34315,N,00401.93949,E
#
,43.378,178.82,120223,,,A*46
$GNVTG,178.82,T,,M,43.378,N,80.336,K,A*22
$GNGGA,074401.00,5054.34315,N,00401.93949,E,1,04,3.68,16.4,M,46.1,M,,*72
$GNGSA,A,3,05,13,15,23,,,,,,,,,4.63,3.68,2.81*19
$GNGSA,A,3,,,,,,,,,,,,,4.63,3.68,2.81*1B
$GPGSV,2,1,07,02,02,259,,05,41,206,23,13,87,339,26,15,56,293,21*7A
$GPGSV,2,2,07,20,15,186,22,23,15,323,22,24,15,253,21*45
$GLGSV,1,1,00*65
$GNGLL,5054.34315,N,00401.93949,E,074401.00,A,A*7E

#
$GNRMC,074402.00,A,5054.33091,N,00401.93
#
937,E,43.652,179.47,120223,,,A*41
$GNVTG,179.47,T,,M,43.652,N,80.844,K,A*29
$GNGGA,074402.00,5054.33091,N,00401.93937,E,1,04,3.68,17.2,M,46.1,M,,*77
$GNGSA,A,3,05,13,15,23,,,,,,,,,4.63,3.68,2.81*19
$GNGSA,A,3,,,,,,,,,,,,,4.63,3.68,2.81*1B
$GPGSV,2,1,07,02,02,259,,05,41,206,24,13,87,339,25,15,56,293,20*7F
$GPGSV,2,2,07,20,15,186,23,23,15,323,23,24,15,253,21*45
$GLGSV,1,1,00*65
$GNGLL,5054.33091,N,00401.93937,E,074402.00,A,A*7C

#
$GNRMC,074403.00,A,5054.31870,N,00401.938
#
83,E,43.744,180.37,120223,,,A*4C
$GNVTG,180.37,T,,M,43.744,N,81.013,K,A*25
$GNGGA,074403.00,5054.31870,N,00401.93883,E,1,04,3.68,18.0,M,46.1,M,,*70
$GNGSA,A,3,05,13,15,23,,,,,,,,,4.63,3.68,2.81*19
$GNGSA,A,3,,,,,,,,,,,,,4.63,3.68,2.81*1B
$GPGSV,2,1,07,02,02,259,,05,41,206,24,13,87,339,25,15,56,293,19*75
$GPGSV,2,2,07,20,15,186,22,23,15,323,21,24,15,253,18*4C
$GLGSV,1,1,00*65
$GNGLL,5054.31870,N,00401.93883,E,074403.00,A,A*76

#
$GNRMC,074404.00,A,5054.30657,N,00401.94013
#
,E,43.614,180.06,120223,,,A*41
$GNVTG,180.06,T,,M,43.614,N,80.773,K,A*23
$GNGGA,074404.00,5054.30657,N,00401.94013,E,1,04,3.68,16.9,M,46.1,M,,*7C
$GNGSA,A,3,05,13,15,23,,,,,,,,,4.63,3.68,2.81*19
$GNGSA,A,3,,,,,,,,,,,,,4.63,3.68,2.81*1B
$GPGSV,2,1,07,02,02,259,,05,41,206,24,13,87,339,25,15,56,293,20*7F
$GPGSV,2,2,07,20,15,186,22,23,15,323,20,24,15,253,17*42
$GLGSV,1,1,00*65
$GNGLL,5054.30657,N,00401.94013,E,074404.00,A,A*7D

#
$GNRMC,074405.00,A,5054.29432,N,00401.9411
#
5,E,43.950,179.51,120223,,,A*45
$GNVTG,179.51,T,,M,43.950,N,81.396,K,A*26
$GNGGA,074405.00,5054.29432,N,00401.94115,E,1,04,3.68,16.5,M,46.1,M,,*7F
$GNGSA,A,3,05,13,15,23,,,,,,,,,4.63,3.68,2.81*19
$GNGSA,A,3,,,,,,,,,,,,,4.63,3.68,2.81*1B
$GPGSV,2,1,07,02,02,259,,05,41,206,24,13,87,339,26,15,56,293,20*7C
$GPGSV,2,2,07,20,15,186,21,23,15,323,18,24,15,253,16*4B
$GLGSV,1,1,00*65
$GNGLL,5054.29432,N,00401.94115,E,074405.00,A,A*72

#
$GNRMC,074406.00,A,5054.28237,N,00401.94178
#
,E,43.275,180.39,120223,,,A*4B
$GNVTG,180.39,T,,M,43.275,N,80.146,K,A*2C
$GNGGA,074406.00,5054.28237,N,00401.94178,E,1,04,3.68,15.2,M,46.1,M,,*71
$GNGSA,A,3,05,13,15,23,,,,,,,,,4.63,3.68,2.81*19
$GNGSA,A,3,,,,,,,,,,,,,4.63,3.68,2.81*1B
$GPGSV,2,1,07,02,02,259,,05,41,206,23,13,87,339,26,15,56,293,20*7B
$GPGSV,2,2,07,20,15,186,22,23,15,323,15,24,15,253,16*45
$GLGSV,1,1,00*65
$GNGLL,5054.28237,N,00401.94178,E,074406.00,A,A*78

#
$GNRMC,074407.00,A,5054.27065,N,00401.94281,E
#
,42.577,178.82,120223,,,A*46
$GNVTG,178.82,T,,M,42.577,N,78.853,K,A*25
$GNGGA,074407.00,5054.27065,N,00401.94281,E,1,04,3.68,15.2,M,46.1,M,,*7F
$GNGSA,A,3,05,13,15,23,,,,,,,,,4.63,3.68,2.81*19
$GNGSA,A,3,,,,,,,,,,,,,4.63,3.68,2.81*1B
$GPGSV,2,1,07,02,02,259,,05,41,206,22,13,87,339,26,15,56,293,21*7B
$GPGSV,2,2,07,20,15,186,22,23,15,323,12,24,15,253,13*47
$GLGSV,1,1,00*65
$GNGLL,5054.27065,N,00401.94281,E,074407.00,A,A*76

#
$GNRMC,074408.00,A,5054.25816,N,00401.94383,E,4
#
4.006,178.31,120223,,,A*49
$GNVTG,178.31,T,,M,44.006,N,81.498,K,A*25
$GNGGA,074408.00,5054.25816,N,00401.94383,E,1,04,3.68,14.9,M,46.1,M,,*77
$GNGSA,A,3,05,13,15,23,,,,,,,,,4.63,3.68,2.81*19
$GNGSA,A,3,,,,,,,,,,,,,4.63,3.68,2.81*1B
$GPGSV,2,1,07,02,01,259,,05,41,206,23,13,87,339,26,15,56,293,20*78
$GPGSV,2,2,07,20,15,186,21,23,15,323,12,24,15,253,12*45
$GLGSV,1,1,00*65
$GNGLL,5054.25816,N,00401.94383,E,074408.00,A,A*74

#
$GNRMC,074409.00,A,5054.24580,N,00401.94378,E,44
#
.256,178.69,120223,,,A*45
$GNVTG,178.69,T,,M,44.256,N,81.962,K,A*27
$GNGGA,074409.00,5054.24580,N,00401.94378,E,1,04,3.68,15.5,M,46.1,M,,*7C
$GNGSA,A,3,05,13,15,23,,,,,,,,,4.63,3.68,2.81*19
$GNGSA,A,3,,,,,,,,,,,,,4.63,3.68,2.81*1B
$GPGSV,2,1,07,02,01,259,,05,41,206,22,13,87,339,27,15,56,293,20*78
$GPGSV,2,2,07,20,15,186,22,23,15,323,14,24,15,253,12*40
$GLGSV,1,1,00*65
$GNGLL,5054.24580,N,00401.94378,E,074409.00,A,A*72

#
$GNRMC,074410.00,A,5054.23283,N,00401.94448,E,45
#
.625,177.80,120223,,,A*43
$GNVTG,177.80,T,,M,45.625,N,84.498,K,A*23
$GNGGA,074410.00,5054.23283,N,00401.94448,E,1,04,3.68,16.1,M,46.1,M,,*74
$GNGSA,A,3,05,13,15,23,,,,,,,,,4.63,3.68,2.81*19
$GNGSA,A,3,,,,,,,,,,,,,4.63,3.68,2.81*1B
$GPGSV,2,1,07,02,01,259,,05,41,206,22,13,87,339,27,15,56,293,19*72
$GPGSV,2,2,07,20,15,186,21,23,15,323,14,24,15,253,11*40
$GLGSV,1,1,00*65
$GNGLL,5054.23283,N,00401.94448,E,074410.00,A,A*7D

#
$GNRMC,074411.00,A,5054.22092,N,00401.94515,E,43.951,
#
179.44,120223,,,A*44
$GNVTG,179.44,T,,M,43.951,N,81.398,K,A*2D
$GNGGA,074411.00,5054.22092,N,00401.94515,E,1,04,3.68,14.5,M,46.1,M,,*79
$GNGSA,A,3,05,13,15,23,,,,,,,,,4.63,3.68,2.81*19
$GNGSA,A,3,,,,,,,,,,,,,4.63,3.68,2.81*1B
$GPGSV,2,1,07,02,01,259,,05,41,206,23,13,87,341,27,15,56,293,19*7C
$GPGSV,2,2,07,20,15,186,21,23,15,323,14,24,15,253,11*40
$GLGSV,1,1,00*65
$GNGLL,5054.22092,N,00401.94515,E,074411.00,A,A*76

#
$GNRMC,074412.00,A,5054.20847,N,00401.94559,E,44.47
#
0,178.99,120223,,,A*45
$GNVTG,178.99,T,,M,44.470,N,82.359,K,A*2B
$GNGGA,074412.00,5054.20847,N,00401.94559,E,1,04,3.68,14.8,M,46.1,M,,*7D
$GNGSA,A,3,05,13,15,23,,,,,,,,,4.63,3.68,2.81*19
$GNGSA,A,3,,,,,,,,,,,,,4.63,3.68,2.81*1B
$GPGSV,2,1,07,02,01,259,,05,41,206,23,13,87,341,27,15,56,292,19*7D
$GPGSV,2,2,07,20,15,186,21,23,15,323,15,24,15,253,13*43
$GLGSV,1,1,00*65
$GNGLL,5054.20847,N,00401.94559,E,074412.00,A,A*7F

#
$GNRMC,074413.00,A,5054.19581,N,00401.94602,E,45.22
#
6,179.31,120223,,,A*43
$GNVTG,179.31,T,,M,45.226,N,83.759,K,A*29
$GNGGA,074413.00,5054.19581,N,00401.94602,E,1,04,3.68,14.5,M,46.1,M,,*71
$GNGSA,A,3,05,13,15,23,,,,,,,,,4.63,3.68,2.81*19
$GNGSA,A,3,,,,,,,,,,,,,4.63,3.68,2.81*1B
$GPGSV,2,1,07,02,01,259,,05,41,206,23,13,87,341,27,15,56,292,19*7D
$GPGSV,2,2,07,20,15,186,20,23,15,323,13,24,15,253,13*44
$GLGSV,1,1,00*65
$GNGLL,5054.19581,N,00401.94602,E,074413.00,A,A*7E

#
$GNRMC,074414.00,V,,,,,,,120223,,,N*61
$GNVTG,,,,,,
#
,,,N*2E
$GNGGA,074414.00,,,,,0,03,3.22,,,,,,*4A
$GNGSA,A,1,05,13,15,,,,,,,,,,3.38,3.22,1.00*17
$GNGSA,A,1,,,,,,,,,,,,,3.38,3.22,1.00*14
$GPGSV,2,1,08,02,01,259,,05,41,206,23,13,87,341,27,15,56,292,20*78
$GPGSV,2,2,08,20,15,186,21,23,15,323,,24,15,253,13,26,,,21*4F
$GLGSV,1,1,00*65
$GNGLL,,,,,074414.00,V,N*56

#
$GNRMC,074415.00,V,,,,,,,120223,,,N*60
$GNVTG,,,,,,,,,
#
N*2E
$GNGGA,074415.00,,,,,0,03,3.22,,,,,,*4B
$GNGSA,A,1,05,13,15,,,,,,,,,,3.38,3.22,1.00*17
$GNGSA,A,1,,,,,,,,,,,,,3.38,3.22,1.00*14
$GPGSV,2,1,07,02,01,259,,05,41,206,23,13,87,341,27,15,56,292,20*77
$GPGSV,2,2,07,20,15,186,21,23,15,323,,24,15,253,12*46
$GLGSV,1,1,00*65
$GNGLL,,,,,074415.00,V,N*57

#
$GNRMC,074416.00,V,,,,,,,120223,,,N*63
$GNVTG,,,,,,,,,N*2E
$
#
GNGGA,074416.00,,,,,0,03,3.22,,,,,,*48
$GNGSA,A,1,05,13,15,,,,,,,,,,3.37,3.22,1.00*18
$GNGSA,A,1,,,,,,,,,,,,,3.37,3.22,1.00*1B
$GPGSV,2,1,08,02,01,259,,05,41,206,23,13,87,341,26,15,56,292,20*79
$GPGSV,2,2,08,20,15,186,21,23,15,322,,24,15,253,14,26,,,22*4A
$GLGSV,1,1,00*65
$GNGLL,,,,,074416.00,V,N*54

#
$GNRMC,074417.00,V,,,,,,,120223,,,N*62
$GNVTG,,,,,,,,,N*2
#
E
$GNGGA,074417.00,,,,,0,03,3.22,,,,,,*49
$GNGSA,A,1,05,13,15,,,,,,,,,,3.37,3.22,1.00*18
$GNGSA,A,1,,,,,,,,,,,,,3.37,3.22,1.00*1B
$GPGSV,2,1,08,02,01,259,,05,41,206,23,13,87,341,26,15,56,292,20*79
$GPGSV,2,2,08,20,15,186,22,23,15,322,,24,15,253,16,26,,,20*49
$GLGSV,1,1,00*65
$GNGLL,,,,,074417.00,V,N*55

#
$GNRMC,074418.00,V,,,,,,,120223,,,N*6D
$GNVTG,,,,,,,,,N*2E
#

$GNGGA,074418.00,,,,,0,03,3.22,,,,,,*46
$GNGSA,A,1,05,13,15,,,,,,,,,,3.37,3.22,1.00*18
$GNGSA,A,1,,,,,,,,,,,,,3.37,3.22,1.00*1B
$GPGSV,2,1,08,02,01,259,,05,41,206,24,13,87,341,26,15,56,292,20*7E
$GPGSV,2,2,08,20,15,186,22,23,15,322,,24,15,253,17,26,,,19*42
$GLGSV,1,1,00*65
$GNGLL,,,,,074418.00,V,N*5A

#
$GNRMC,074419.00,V,,,,,,,120223,,,N*6C
$GNVTG,,,,,,,,,N*2E
#

$GNGGA,074419.00,,,,,0,03,3.22,,,,,,*47
$GNGSA,A,1,05,13,15,,,,,,,,,,3.37,3.22,1.00*18
$GNGSA,A,1,,,,,,,,,,,,,3.37,3.22,1.00*1B
$GPGSV,2,1,08,02,01,259,,05,41,206,24,13,87,341,25,15,56,292,20*7D
$GPGSV,2,2,08,20,15,186,21,23,15,322,,24,15,253,17,26,,,18*40
$GLGSV,1,1,00*65
$GNGLL,,,,,074419.00,V,N*5B

#
$GNRMC,074420.00,V,,,,,,,120223,,,N*66
$GNVTG,,,,,,,,,N*2E
#

$GNGGA,074420.00,,,,,0,03,3.22,,,,,,*4D
$GNGSA,A,1,05,13,15,,,,,,,,,,3.37,3.22,1.00*18
$GNGSA,A,1,,,,,,,,,,,,,3.37,3.22,1.00*1B
$GPGSV,2,1,08,02,01,259,,05,41,206,23,13,87,341,25,15,56,292,20*7A
$GPGSV,2,2,08,20,15,186,21,23,15,322,,24,15,253,18,26,,,17*40
$GLGSV,1,1,00*65
$GNGLL,,,,,074420.00,V,N*51

#
$GNRMC,074421.00,V,,,,,,,120223,,,N*67
$GNVTG,,,,,,,,,N*2E
#

$GNGGA,074421.00,,,,,0,03,3.22,,,,,,*4C
$GNGSA,A,1,05,13,15,,,,,,,,,,3.37,3.22,1.00*18
$GNGSA,A,1,,,,,,,,,,,,,3.37,3.22,1.00*1B
$GPGSV,2,1,07,02,01,259,,05,41,206,23,13,87,341,26,15,56,292,21*77
$GPGSV,2,2,07,20,15,186,20,23,15,322,17,24,15,253,18*4A
$GLGSV,1,1,00*65
$GNGLL,,,,,074421.00,V,N*50

#
$GNRMC,074422.00,V,,,,,,,120223,,,N*64
$GNVTG,,,,,,,,,N*2E

#
$GNGGA,074422.00,,,,,0,03,3.22,,,,,,*4F
$GNGSA,A,1,05,13,15,,,,,,,,,,3.37,3.22,1.00*18
$GNGSA,A,1,,,,,,,,,,,,,3.37,3.22,1.00*1B
$GPGSV,2,1,07,02,01,259,,05,41,206,23,13,87,341,26,15,56,292,21*77
$GPGSV,2,2,07,20,15,186,18,23,15,322,20,24,15,253,19*44
$GLGSV,1,1,00*65
$GNGLL,,,,,074422.00,V,N*53

#
$GNRMC,074423.00,V,,,,,,,120223,,,N*65
$GNVTG,,,,,,,,,N*2E
$
#
GNGGA,074423.00,,,,,0,03,3.22,,,,,,*4E
$GNGSA,A,1,05,13,15,,,,,,,,,,3.37,3.22,1.00*18
$GNGSA,A,1,,,,,,,,,,,,,3.37,3.22,1.00*1B
$GPGSV,2,1,08,02,01,259,,05,41,206,22,13,87,341,25,15,56,292,20*7B
$GPGSV,2,2,08,20,15,186,19,23,15,322,20,24,15,253,18,31,,,19*41
$GLGSV,1,1,00*65
$GNGLL,,,,,074423.00,V,N*52

#
$GNRMC,074424.00,V,,,,,,,120223,,,N*62
$GNVTG,,,,,,,,,N*2E
$
#
GNGGA,074424.00,,,,,0,03,3.22,,,,,,*49
$GNGSA,A,1,05,13,15,,,,,,,,,,3.37,3.22,1.00*18
$GNGSA,A,1,,,,,,,,,,,,,3.37,3.22,1.00*1B
$GPGSV,2,1,08,02,01,259,,05,41,206,22,13,87,341,25,15,56,292,18*70
$GPGSV,2,2,08,20,15,186,18,23,15,322,17,24,15,253,16,31,,,18*4B
$GLGSV,1,1,00*65
$GNGLL,,,,,074424.00,V,N*55

#
$GNRMC,074425.00,A,5054.04381,N,00401.95447,E,44.526,177.93,12
#
0223,,,A*4E
$GNVTG,177.93,T,,M,44.526,N,82.461,K,A*20
$GNGGA,074425.00,5054.04381,N,00401.95447,E,1,04,3.67,11.8,M,46.1,M,,*7B
$GNGSA,A,3,05,13,15,23,,,,,,,,,4.63,3.67,2.82*15
$GNGSA,A,3,,,,,,,,,,,,,4.63,3.67,2.82*17
$GPGSV,2,1,07,02,01,259,,05,41,206,22,13,87,341,26,15,56,292,18*7C
$GPGSV,2,2,07,20,15,186,16,23,15,322,15,24,15,253,13*46
$GLGSV,1,1,00*65
$GNGLL,5054.04381,N,00401.95447,E,074425.00,A,A*73

#
$GNRMC,074426.00,A,5054.03135,N,00401.95579,E,44.411,177.14,120223,,
#
,A*41
$GNVTG,177.14,T,,M,44.411,N,82.249,K,A*26
$GNGGA,074426.00,5054.03135,N,00401.95579,E,1,04,3.67,12.4,M,46.1,M,,*71
$GNGSA,A,3,05,13,15,23,,,,,,,,,4.63,3.67,2.82*15
$GNGSA,A,3,,,,,,,,,,,,,4.63,3.67,2.82*17
$GPGSV,2,1,07,02,01,259,,05,41,206,21,13,87,341,26,15,56,292,18*7F
$GPGSV,2,2,07,20,15,186,12,23,15,322,12,24,15,253,09*4E
$GLGSV,1,1,00*65
$GNGLL,5054.03135,N,00401.95579,E,074426.00,A,A*76

#
$GNRMC,074427.00,V,,,,,,,120223,,,N*61
$GNVTG,,,,,,,,,N*2E
$GN
#
GGA,074427.00,,,,,0,03,3.22,,,,,,*4A
$GNGSA,A,1,05,13,15,,,,,,,,,,3.37,3.22,1.00*18
$GNGSA,A,1,,,,,,,,,,,,,3.37,3.22,1.00*1B
$GPGSV,2,1,07,02,01,259,,05,41,206,19,13,87,341,26,15,56,292,17*7B
$GPGSV,2,2,07,20,15,186,,23,15,322,10,24,15,253,09*4F
$GLGSV,1,1,00*65
$GNGLL,,,,,074427.00,V,N*56

#
$GNRMC,074428.00,V,,,,,,,120223,,,N*6E
$GNVTG,,,,,,,,,N*2E
$GNG
#
GA,074428.00,,,,,0,03,3.22,,,,,,*45
$GNGSA,A,1,05,13,15,,,,,,,,,,3.37,3.22,1.00*18
$GNGSA,A,1,,,,,,,,,,,,,3.37,3.22,1.00*1B
$GPGSV,2,1,07,02,01,259,,05,41,206,17,13,87,341,26,15,56,292,17*75
$GPGSV,2,2,07,20,15,186,,23,15,322,08,24,15,253,11*4F
$GLGSV,1,1,00*65
$GNGLL,,,,,074428.00,V,N*59

#
$GNRMC,074429.00,V,,,,,,,120223,,,N*6F
$GNVTG,,,,,,,,,N*2E
$GNGGA
#
,074429.00,,,,,0,03,3.22,,,,,,*44
$GNGSA,A,1,05,13,15,,,,,,,,,,3.37,3.22,1.00*18
$GNGSA,A,1,,,,,,,,,,,,,3.37,3.22,1.00*1B
$GPGSV,2,1,07,02,01,259,,05,41,206,17,13,87,341,25,15,56,292,15*74
$GPGSV,2,2,07,20,15,186,,23,15,322,08,24,15,253,11*4F
$GLGSV,1,1,00*65
$GNGLL,,,,,074429.00,V,N*58

#
$GNRMC,074430.00,V,,,,,,,120223,,,N*67
$GNVTG,,,,,,,,,N*2E
$GNGGA,
#
074430.00,,,,,0,03,3.22,,,,,,*4C
$GNGSA,A,1,05,13,15,,,,,,,,,,3.37,3.22,1.00*18
$GNGSA,A,1,,,,,,,,,,,,,3.37,3.22,1.00*1B
$GPGSV,2,1,07,02,01,259,,05,41,206,18,13,87,341,26,15,56,292,12*7F
$GPGSV,2,2,07,20,15,186,21,23,15,322,07,24,15,253,10*42
$GLGSV,1,1,00*65
$GNGLL,,,,,074430.00,V,N*50

#
$GNRMC,074431.00,V,,,,,,,120223,,,N*66
$GNVTG,,,,,,,,,N*2E
$GNGGA,0744
#
31.00,,,,,0,00,99.99,,,,,,*7D
$GNGSA,A,1,,,,,,,,,,,,,99.99,99.99,99.99*2E
$GNGSA,A,1,,,,,,,,,,,,,99.99,99.99,99.99*2E
$GPGSV,2,1,07,02,01,259,,05,41,206,19,13,87,341,26,15,56,292,09*74
$GPGSV,2,2,07,20,15,186,20,23,15,322,07,24,15,253,13*40
$GLGSV,1,1,00*65
$GNGLL,,,,,074431.00,V,N*51

#
$GNRMC,074432.00,V,,,,,,,120223,,,N*65
$GNVTG,,,,,,,,,N*2E
$GNGGA,07443
#
2.00,,,,,0,00,99.99,,,,,,*7E
$GNGSA,A,1,,,,,,,,,,,,,99.99,99.99,99.99*2E
$GNGSA,A,1,,,,,,,,,,,,,99.99,99.99,99.99*2E
$GPGSV,2,1,07,02,01,259,,05,41,206,20,13,87,341,26,15,56,292,09*7E
$GPGSV,2,2,07,20,15,186,19,23,15,322,08,24,15,253,16*40
$GLGSV,1,1,00*65
$GNGLL,,,,,074432.00,V,N*52

#
$GNRMC,074433.00,V,,,,,,,120223,,,N*64
$GNVTG,,,,,,,,,N*2E
$GNGGA,0744
#
33.00,,,,,0,03,3.22,,,,,,*4F
$GNGSA,A,1,05,13,15,,,,,,,,,,3.37,3.22,1.00*18
$GNGSA,A,1,,,,,,,,,,,,,3.37,3.22,1.00*1B
$GPGSV,2,1,07,02,01,259,,05,40,206,22,13,87,341,27,15,56,292,14*70
$GPGSV,2,2,07,20,15,186,17,23,15,322,08,24,15,253,18*40
$GLGSV,1,1,00*65
$GNGLL,,,,,074433.00,V,N*53

#
$GNRMC,074434.00,A,5053.93727,N,00401.95108,E,43.250,180.02,120223,,,A*40
#

$GNVTG,180.02,T,,M,43.250,N,80.100,K,A*21
$GNGGA,074434.00,5053.93727,N,00401.95108,E,1,04,3.67,16.2,M,46.1,M,,*79
$GNGSA,A,3,05,13,15,23,,,,,,,,,4.63,3.67,2.82*15
$GNGSA,A,3,,,,,,,,,,,,,4.63,3.67,2.82*17
$GPGSV,2,1,07,02,01,259,,05,40,206,22,13,87,343,27,15,56,292,17*71
$GPGSV,2,2,07,20,15,186,20,23,15,322,14,24,15,253,17*46
$GLGSV,1,1,00*65
$GNGLL,5053.93727,N,00401.95108,E,074434.00,A,A*7C

#
$GNRMC,074435.00,A,5053.92400,N,00401.95134,E,43.961,179.93,120223,,,A*4E

#
$GNVTG,179.93,T,,M,43.961,N,81.416,K,A*25
$GNGGA,074435.00,5053.92400,N,00401.95134,E,1,04,3.67,18.1,M,46.1,M,,*7D
$GNGSA,A,3,05,13,15,23,,,,,,,,,4.63,3.67,2.82*15
$GNGSA,A,3,,,,,,,,,,,,,4.63,3.67,2.82*17
$GPGSV,2,1,07,02,01,259,,05,40,206,23,13,87,343,27,15,56,292,19*7E
$GPGSV,2,2,07,20,15,186,21,23,15,322,14,24,15,253,16*46
$GLGSV,1,1,00*65
$GNGLL,5053.92400,N,00401.95134,E,074435.00,A,A*75

#
$GNRMC,074436.00,A,5053.91130,N,00401.95013,E,43.475,181.21,120223,,,A*4A
$
#
GNVTG,181.21,T,,M,43.475,N,80.516,K,A*23
$GNGGA,074436.00,5053.91130,N,00401.95013,E,1,04,3.67,19.2,M,46.1,M,,*7D
$GNGSA,A,3,05,13,15,23,,,,,,,,,4.63,3.67,2.82*15
$GNGSA,A,3,,,,,,,,,,,,,4.63,3.67,2.82*17
$GPGSV,2,1,07,02,01,259,,05,40,206,24,13,87,343,28,15,56,292,19*76
$GPGSV,2,2,07,20,15,186,22,23,15,322,15,24,15,253,16*44
$GLGSV,1,1,00*65
$GNGLL,5053.91130,N,00401.95013,E,074436.00,A,A*77

#
$GNRMC,074437.00,A,5053.89841,N,00401.94998,E,43.847,180.85,120223,,,A*44
$
#
GNVTG,180.85,T,,M,43.847,N,81.204,K,A*24
$GNGGA,074437.00,5053.89841,N,00401.94998,E,1,04,3.67,20.9,M,46.1,M,,*70
$GNGSA,A,3,05,13,15,23,,,,,,,,,4.63,3.67,2.82*15
$GNGSA,A,3,,,,,,,,,,,,,4.63,3.67,2.82*17
$GPGSV,2,1,07,02,01,259,,05,40,206,24,13,87,343,28,15,56,292,19*76
$GPGSV,2,2,07,20,15,186,24,23,15,322,16,24,15,253,18*4F
$GLGSV,1,1,00*65
$GNGLL,5053.89841,N,00401.94998,E,074437.00,A,A*7B

#
$GNRMC,074438.00,A,5053.88506,N,00401.95144,E,45.101,178.66,120223,,,A*4B
$G
#
NVTG,178.66,T,,M,45.101,N,83.527,K,A*27
$GNGGA,074438.00,5053.88506,N,00401.95144,E,1,04,3.67,23.0,M,46.1,M,,*72
$GNGSA,A,3,05,13,15,23,,,,,,,,,4.63,3.67,2.82*15
$GNGSA,A,3,,,,,,,,,,,,,4.63,3.67,2.82*17
$GPGSV,2,1,07,02,01,259,,05,40,206,25,13,87,343,27,15,56,292,20*72
$GPGSV,2,2,07,20,15,186,24,23,15,322,20,24,15,253,19*4B
$GLGSV,1,1,00*65
$GNGLL,5053.88506,N,00401.95144,E,074438.00,A,A*73

#
$GNRMC,074439.00,A,5053.87174,N,00401.95171,E,45.622,178.20,120223,,,A*46
$GN
#
VTG,178.20,T,,M,45.622,N,84.492,K,A*2B
$GNGGA,074439.00,5053.87174,N,00401.95171,E,1,04,3.67,25.9,M,46.1,M,,*74
$GNGSA,A,3,05,13,15,23,,,,,,,,,4.63,3.67,2.82*15
$GNGSA,A,3,,,,,,,,,,,,,4.63,3.67,2.82*17
$GPGSV,2,1,07,02,01,259,,05,40,206,25,13,87,343,27,15,56,292,22*70
$GPGSV,2,2,07,20,15,186,24,23,16,322,21,24,15,253,18*48
$GLGSV,1,1,00*65
$GNGLL,5053.87174,N,00401.95171,E,074439.00,A,A*7A

#
$GNRMC,074440.00,A,5053.85856,N,00401.95193,E,45.784,178.06,120223,,,A*46
$GNV
#
TG,178.06,T,,M,45.784,N,84.792,K,A*21
$GNGGA,074440.00,5053.85856,N,00401.95193,E,1,04,3.67,28.5,M,46.1,M,,*7C
$GNGSA,A,3,05,13,15,23,,,,,,,,,4.63,3.67,2.82*15
$GNGSA,A,3,,,,,,,,,,,,,4.63,3.67,2.82*17
$GPGSV,2,1,07,02,01,259,,05,40,206,26,13,87,343,27,15,56,292,22*73
$GPGSV,2,2,07,20,15,186,24,23,16,322,21,24,15,253,17*47
$GLGSV,1,1,00*65
$GNGLL,5053.85856,N,00401.95193,E,074440.00,A,A*73

#
$GNRMC,074441.00,A,5053.84541,N,00401.95194,E,45.880,178.15,120223,,,A*43
$GNV
#
TG,178.15,T,,M,45.880,N,84.969,K,A*22
$GNGGA,074441.00,5053.84541,N,00401.95194,E,1,04,3.67,30.9,M,46.1,M,,*75
$GNGSA,A,3,05,13,15,23,,,,,,,,,4.63,3.67,2.82*15
$GNGSA,A,3,,,,,,,,,,,,,4.63,3.67,2.82*17
$GPGSV,2,1,07,02,01,259,,05,40,206,26,13,87,343,28,15,56,292,22*7C
$GPGSV,2,2,07,20,15,186,24,23,16,322,22,24,15,253,18*4B
$GLGSV,1,1,00*65
$GNGLL,5053.84541,N,00401.95194,E,074441.00,A,A*7F

#
$GNRMC,074442.00,A,5053.83245,N,00401.95190,E,45.773,178.24,120223,,,A*41
$GNVTG,
#
178.24,T,,M,45.773,N,84.772,K,A*27
$GNGGA,074442.00,5053.83245,N,00401.95190,E,1,04,3.67,33.1,M,46.1,M,,*7D
$GNGSA,A,3,05,13,15,23,,,,,,,,,4.63,3.67,2.82*15
$GNGSA,A,3,,,,,,,,,,,,,4.63,3.67,2.82*17
$GPGSV,2,1,07,02,01,259,,05,40,206,26,13,87,343,28,15,56,292,20*7E
$GPGSV,2,2,07,20,15,186,23,23,16,322,21,24,15,253,18*4F
$GLGSV,1,1,00*65
$GNGLL,5053.83245,N,00401.95190,E,074442.00,A,A*7C

#
$GNRMC,074443.00,A,5053.81948,N,00401.95234,E,46.028,177.85,120223,,,A*47
$GNVTG,
#
177.85,T,,M,46.028,N,85.244,K,A*28
$GNGGA,074443.00,5053.81948,N,00401.95234,E,1,04,3.67,34.8,M,46.1,M,,*7B
$GNGSA,A,3,05,13,15,23,,,,,,,,,4.63,3.67,2.82*15
$GNGSA,A,3,,,,,,,,,,,,,4.63,3.67,2.82*17
$GPGSV,2,1,07,02,01,259,,05,40,206,26,13,87,343,28,15,56,292,20*7E
$GPGSV,2,2,07,20,15,186,22,23,16,322,21,24,15,253,18*4E
$GLGSV,1,1,00*65
$GNGLL,5053.81948,N,00401.95234,E,074443.00,A,A*74

#
$GNRMC,074444.00,A,5053.80634,N,00401.95227,E,46.668,178.73,120223,,,A*43
$GNVTG,17
#
8.73,T,,M,46.668,N,86.430,K,A*2A
$GNGGA,074444.00,5053.80634,N,00401.95227,E,1,04,3.67,36.0,M,46.1,M,,*71
$GNGSA,A,3,05,13,15,23,,,,,,,,,4.63,3.67,2.82*15
$GNGSA,A,3,,,,,,,,,,,,,4.63,3.67,2.82*17
$GPGSV,2,1,07,02,01,259,,05,40,206,25,13,87,343,28,15,56,292,20*7D
$GPGSV,2,2,07,20,15,186,20,23,16,322,20,24,15,253,18*4D
$GLGSV,1,1,00*65
$GNGLL,5053.80634,N,00401.95227,E,074444.00,A,A*74

#
$GNRMC,074445.00,A,5053.79345,N,00401.95055,E,46.013,180.46,120223,,,A*4B
$GNVTG,180
#
.46,T,,M,46.013,N,85.216,K,A*20
$GNGGA,074445.00,5053.79345,N,00401.95055,E,1,04,3.67,38.3,M,46.1,M,,*7F
$GNGSA,A,3,05,13,15,23,,,,,,,,,4.63,3.67,2.82*15
$GNGSA,A,3,,,,,,,,,,,,,4.63,3.67,2.82*17
$GPGSV,2,1,07,02,01,259,,05,40,206,23,13,87,343,28,15,56,292,19*71
$GPGSV,2,2,07,20,15,186,19,23,16,322,21,24,15,253,19*47
$GLGSV,1,1,00*65
$GNGLL,5053.79345,N,00401.95055,E,074445.00,A,A*77

#
$GNRMC,074446.00,A,5053.78075,N,00401.94986,E,45.393,179.93,120223,,,A*49
$GNVTG,179.93,T,
#
,M,45.393,N,84.068,K,A*2C
$GNGGA,074446.00,5053.78075,N,00401.94986,E,1,04,3.67,40.1,M,46.1,M,,*76
$GNGSA,A,3,05,13,15,23,,,,,,,,,4.63,3.67,2.82*15
$GNGSA,A,3,,,,,,,,,,,,,4.63,3.67,2.82*17
$GPGSV,2,1,07,02,01,259,,05,40,206,22,13,87,343,28,15,56,292,19*70
$GPGSV,2,2,07,20,15,186,21,23,16,322,22,24,15,253,17*41
$GLGSV,1,1,00*65
$GNGLL,5053.78075,N,00401.94986,E,074446.00,A,A*73

#
$GNRMC,074447.00,A,5053.76788,N,00401.94992,E,45.909,179.90,120223,,,A*4C
$GNVTG,179.9
#
0,T,,M,45.909,N,85.024,K,A*2F
$GNGGA,074447.00,5053.76788,N,00401.94992,E,1,04,3.67,40.8,M,46.1,M,,*70
$GNGSA,A,3,05,13,15,23,,,,,,,,,4.63,3.67,2.82*15
$GNGSA,A,3,,,,,,,,,,,,,4.63,3.67,2.82*17
$GPGSV,2,1,07,02,01,259,,05,40,206,23,13,87,343,28,15,56,292,19*71
$GPGSV,2,2,07,20,15,186,21,23,16,322,20,24,15,253,20*47
$GLGSV,1,1,00*65
$GNGLL,5053.76788,N,00401.94992,E,074447.00,A,A*7C

#
$GNRMC,074448.00,A,5053.75520,N,00401.94950,E,45.571,180.64,120223,,,A*40
$GNVTG,180.
#
64,T,,M,45.571,N,84.398,K,A*24
$GNGGA,074448.00,5053.75520,N,00401.94950,E,1,04,3.67,41.5,M,46.1,M,,*7E
$GNGSA,A,3,05,13,15,23,,,,,,,,,4.63,3.67,2.82*15
$GNGSA,A,3,,,,,,,,,,,,,4.63,3.67,2.82*17
$GPGSV,2,1,07,02,01,259,,05,40,206,24,13,87,343,28,15,56,292,20*7C
$GPGSV,2,2,07,20,15,186,21,23,16,322,20,24,15,253,22*45
$GLGSV,1,1,00*65
$GNGLL,5053.75520,N,00401.94950,E,074448.00,A,A*7E

#
$GNRMC,074449.00,A,5053.74262,N,00401.94926,E,45.339,180.52,120223,,,A*4F
$GNVTG,180.52,
#
T,,M,45.339,N,83.967,K,A*26
$GNGGA,074449.00,5053.74262,N,00401.94926,E,1,04,3.67,42.3,M,46.1,M,,*7B
$GNGSA,A,3,05,13,15,23,,,,,,,,,4.63,3.67,2.82*15
$GNGSA,A,3,,,,,,,,,,,,,4.63,3.67,2.82*17
$GPGSV,2,1,07,02,01,259,,05,40,206,24,13,87,343,28,15,56,292,20*7C
$GPGSV,2,2,07,20,15,186,21,23,16,322,22,24,15,253,22*47
$GLGSV,1,1,00*65
$GNGLL,5053.74262,N,00401.94926,E,074449.00,A,A*7E

#
$GNRMC,074450.00,A,5053.73003,N,00401.94914,E,45.193,180.49,120223,,,A*4C
$GNVTG,180.49,T
#
,,M,45.193,N,83.698,K,A*21
$GNGGA,074450.00,5053.73003,N,00401.94914,E,1,04,3.67,43.0,M,46.1,M,,*72
$GNGSA,A,3,05,13,15,23,,,,,,,,,4.63,3.67,2.82*15
$GNGSA,A,3,,,,,,,,,,,,,4.63,3.67,2.82*17
$GPGSV,2,1,07,02,01,259,,05,40,206,24,13,87,343,28,15,56,292,20*7C
$GPGSV,2,2,07,20,15,186,22,23,16,322,24,24,15,253,23*43
$GLGSV,1,1,00*65
$GNGLL,5053.73003,N,00401.94914,E,074450.00,A,A*75

#
$GNRMC,074451.00,A,5053.71761,N,00401.94944,E,44.593,179.64,120223,,,A*45
$GNVTG,179.64,
#
T,,M,44.593,N,82.586,K,A*20
$GNGGA,074451.00,5053.71761,N,00401.94944,E,1,04,3.67,43.9,M,46.1,M,,*7E
$GNGSA,A,3,05,13,15,23,,,,,,,,,4.63,3.67,2.82*15
$GNGSA,A,3,,,,,,,,,,,,,4.63,3.67,2.82*17
$GPGSV,2,1,07,02,01,259,,05,40,206,24,13,87,343,28,15,56,292,21*7D
$GPGSV,2,2,07,20,15,186,24,23,16,322,24,24,15,253,23*45
$GLGSV,1,1,00*65
$GNGLL,5053.71761,N,00401.94944,E,074451.00,A,A*70

#
$GNRMC,074452.00,A,5053.70505,N,00401.94991,E,44.899,179.25,120223,,,A*4D
$GNVTG,179.25,T
#
,,M,44.899,N,83.153,K,A*2F
$GNGGA,074452.00,5053.70505,N,00401.94991,E,1,04,3.67,44.5,M,46.1,M,,*7F
$GNGSA,A,3,05,13,15,23,,,,,,,,,4.63,3.67,2.82*15
$GNGSA,A,3,,,,,,,,,,,,,4.63,3.67,2.82*17
$GPGSV,2,1,07,02,01,259,,05,40,206,25,13,87,343,28,15,56,292,21*7C
$GPGSV,2,2,07,20,15,186,22,23,16,322,25,24,15,253,23*42
$GLGSV,1,1,00*65
$GNGLL,5053.70505,N,00401.94991,E,074452.00,A,A*7A

#
$GNRMC,074453.00,A,5053.69268,N,00401.95133,E,44.527,179.04,120223,,,A*42
$GNVTG,179.04,T,,M
#
,44.527,N,82.465,K,A*25
$GNGGA,074453.00,5053.69268,N,00401.95133,E,1,04,3.67,44.1,M,46.1,M,,*7F
$GNGSA,A,3,05,13,15,23,,,,,,,,,4.63,3.67,2.83*14
$GNGSA,A,3,,,,,,,,,,,,,4.63,3.67,2.83*16
$GPGSV,2,1,07,02,01,259,,05,40,206,25,13,87,343,28,15,56,292,21*7C
$GPGSV,2,2,07,20,15,186,23,23,16,322,25,24,15,253,24*44
$GLGSV,1,1,00*65
$GNGLL,5053.69268,N,00401.95133,E,074453.00,A,A*7E

#
$GNRMC,074454.00,A,5053.68040,N,00401.95308,E,44.305,178.22,120223,,,A*45
$GNVTG,178.22,T,,M,
#
44.305,N,82.053,K,A*27
$GNGGA,074454.00,5053.68040,N,00401.95308,E,1,04,3.67,43.7,M,46.1,M,,*7A
$GNGSA,A,3,05,13,15,23,,,,,,,,,4.63,3.67,2.83*14
$GNGSA,A,3,,,,,,,,,,,,,4.63,3.67,2.83*16
$GPGSV,2,1,07,02,01,258,19,05,40,206,24,13,87,343,27,15,56,292,19*70
$GPGSV,2,2,07,20,15,186,22,23,16,322,22,24,15,253,22*44
$GLGSV,1,1,00*65
$GNGLL,5053.68040,N,00401.95308,E,074454.00,A,A*7A

#
$GNRMC,074455.00,A,5053.66833,N,00401.95398,E,43.613,178.94,120223,,,A*47
$GNVTG,178.94,T,,M,43
#
.613,N,80.771,K,A*2A
$GNGGA,074455.00,5053.66833,N,00401.95398,E,1,04,3.66,43.4,M,46.1,M,,*72
$GNGSA,A,3,05,13,15,23,,,,,,,,,4.63,3.66,2.83*15
$GNGSA,A,3,,,,,,,,,,,,,4.63,3.66,2.83*17
$GPGSV,2,1,07,02,01,258,18,05,40,206,24,13,87,343,27,15,56,292,18*70
$GPGSV,2,2,07,20,15,186,22,23,16,322,22,24,15,253,23*45
$GLGSV,1,1,00*65
$GNGLL,5053.66833,N,00401.95398,E,074455.00,A,A*70

#
$GNRMC,074456.00,A,5053.65628,N,00401.95511,E,43.436,178.80,120223,,,A*44
$GNVTG,178.80,T,,M,43.436,N,
#
80.443,K,A*28
$GNGGA,074456.00,5053.65628,N,00401.95511,E,1,04,3.66,43.1,M,46.1,M,,*74
$GNGSA,A,3,05,13,15,23,,,,,,,,,4.63,3.66,2.83*15
$GNGSA,A,3,,,,,,,,,,,,,4.63,3.66,2.83*17
$GPGSV,2,1,07,02,01,258,17,05,40,206,23,13,87,343,26,15,56,292,18*79
$GPGSV,2,2,07,20,15,186,21,23,16,322,21,24,15,253,22*44
$GLGSV,1,1,00*65
$GNGLL,5053.65628,N,00401.95511,E,074456.00,A,A*73

#
$GNRMC,074457.00,A,5053.64416,N,00401.95493,E,43.526,179.70,120223,,,A*4E
$GNVTG,179.70,T,,M,43.52
#
6,N,80.610,K,A*22
$GNGGA,074457.00,5053.64416,N,00401.95493,E,1,04,3.66,43.6,M,46.1,M,,*77
$GNGSA,A,3,05,13,15,23,,,,,,,,,4.63,3.66,2.83*15
$GNGSA,A,3,,,,,,,,,,,,,4.63,3.66,2.83*17
$GPGSV,2,1,07,02,01,258,17,05,40,206,24,13,87,343,26,15,56,292,19*7F
$GPGSV,2,2,07,20,15,186,21,23,16,322,22,24,15,253,22*47
$GLGSV,1,1,00*65
$GNGLL,5053.64416,N,00401.95493,E,074457.00,A,A*77

#
$GNRMC,074458.00,A,5053.63182,N,00401.95522,E,44.132,180.24,120223,,,A*44
$GNVTG,180.24,T,,M,44.1
#
32,N,81.732,K,A*23
$GNGGA,074458.00,5053.63182,N,00401.95522,E,1,04,3.66,43.4,M,46.1,M,,*7E
$GNGSA,A,3,05,13,15,23,,,,,,,,,4.63,3.66,2.83*15
$GNGSA,A,3,,,,,,,,,,,,,4.63,3.66,2.83*17
$GPGSV,2,1,07,02,01,258,15,05,40,206,23,13,87,346,26,15,56,292,20*75
$GPGSV,2,2,07,20,15,186,20,23,16,322,23,24,15,253,21*44
$GLGSV,1,1,00*65
$GNGLL,5053.63182,N,00401.95522,E,074458.00,A,A*7C

#
$GNRMC,074459.00,A,5053.61988,N,00401.95690,E,43.320,178.95,120223,,,A*44
$GNVTG,178.95,T,,M,43.320,
#
N,80.228,K,A*27
$GNGGA,074459.00,5053.61988,N,00401.95690,E,1,04,3.66,42.5,M,46.1,M,,*75
$GNGSA,A,3,05,13,15,23,,,,,,,,,4.63,3.66,2.83*15
$GNGSA,A,3,,,,,,,,,,,,,4.63,3.66,2.83*17
$GPGSV,2,1,07,02,01,258,17,05,40,206,23,13,87,346,26,15,57,292,19*7C
$GPGSV,2,2,07,20,15,186,21,23,16,322,23,24,15,253,21*45
$GLGSV,1,1,00*65
$GNGLL,5053.61988,N,00401.95690,E,074459.00,A,A*77

#
$GNRMC,074500.00,A,5053.60767,N,00401.95769,E,43.611,179.45,120223,,,A*4B
$GNVTG,179.45,T,,M,43.611
#
,N,80.767,K,A*22
$GNGGA,074500.00,5053.60767,N,00401.95769,E,1,04,3.66,41.8,M,46.1,M,,*7F
$GNGSA,A,3,05,13,15,23,,,,,,,,,4.63,3.66,2.83*15
$GNGSA,A,3,,,,,,,,,,,,,4.63,3.66,2.83*17
$GPGSV,2,1,07,02,01,258,16,05,40,206,22,13,87,346,26,15,57,292,18*7D
$GPGSV,2,2,07,20,15,186,20,23,16,322,22,24,15,253,22*46
$GLGSV,1,1,00*65
$GNGLL,5053.60767,N,00401.95769,E,074500.00,A,A*73

#
$GNRMC,074501.00,A,5053.59537,N,00401.95790,E,43.993,179.37,120223,,,A*41
$GNVTG,179.37,T,,M,43.993,N,81.47
#
6,K,A*20
$GNGGA,074501.00,5053.59537,N,00401.95790,E,1,04,3.66,42.0,M,46.1,M,,*7E
$GNGSA,A,3,05,13,15,23,,,,,,,,,4.63,3.66,2.83*15
$GNGSA,A,3,,,,,,,,,,,,,4.63,3.66,2.83*17
$GPGSV,2,1,07,02,01,258,17,05,40,206,22,13,87,346,26,15,57,292,17*73
$GPGSV,2,2,07,20,14,186,21,23,16,322,21,24,15,253,22*45
$GLGSV,1,1,00*65
$GNGLL,5053.59537,N,00401.95790,E,074501.00,A,A*79

#
$GNRMC,074502.00,A,5053.58306,N,00401.95805,E,44.118,180.24,120223,,,A*4C
$GNVTG,180.24,T,,M,44.118,N,
#
81.707,K,A*2D
$GNGGA,074502.00,5053.58306,N,00401.95805,E,1,04,3.66,41.6,M,46.1,M,,*7E
$GNGSA,A,3,05,13,15,23,,,,,,,,,4.63,3.66,2.83*15
$GNGSA,A,3,,,,,,,,,,,,,4.63,3.66,2.83*17
$GPGSV,2,1,07,02,01,258,21,05,40,206,23,13,87,346,26,15,57,292,18*78
$GPGSV,2,2,07,20,14,186,20,23,16,322,20,24,15,253,23*44
$GLGSV,1,1,00*65
$GNGLL,5053.58306,N,00401.95805,E,074502.00,A,A*7C

#
$GNRMC,074503.00,A,5053.57086,N,00401.95792,E,43.969,180.38,120223,,,A*4C
$GNVTG,180.38,T,,M,43.969,N,
#
81.430,K,A*2E
$GNGGA,074503.00,5053.57086,N,00401.95792,E,1,04,3.66,42.0,M,46.1,M,,*7F
$GNGSA,A,3,05,13,15,23,,,,,,,,,4.63,3.66,2.83*15
$GNGSA,A,3,,,,,,,,,,,,,4.63,3.66,2.83*17
$GPGSV,2,1,07,02,01,258,21,05,40,206,23,13,87,346,26,15,57,292,17*77
$GPGSV,2,2,07,20,14,186,19,23,16,322,20,24,15,253,25*48
$GLGSV,1,1,00*65
$GNGLL,5053.57086,N,00401.95792,E,074503.00,A,A*78

#
$GNRMC,074504.00,A,5053.55855,N,00401.95622,E,44.097,182.20,120223,,,A*41
$GNVTG,182.20,T,,M,44.097,N,81
#
.668,K,A*25
$GNGGA,074504.00,5053.55855,N,00401.95622,E,1,04,3.66,42.9,M,46.1,M,,*7F
$GNGSA,A,3,05,13,15,23,,,,,,,,,4.63,3.66,2.83*15
$GNGSA,A,3,,,,,,,,,,,,,4.63,3.66,2.83*17
$GPGSV,2,1,07,02,01,258,22,05,40,206,23,13,87,346,26,15,57,292,15*76
$GPGSV,2,2,07,20,14,186,20,23,16,322,18,24,15,254,25*4E
$GLGSV,1,1,00*65
$GNGLL,5053.55855,N,00401.95622,E,074504.00,A,A*71

#
$GNRMC,074505.00,A,5053.54576,N,00401.95811,E,45.245,179.74,120223,,,A*4A
$GNVTG,179.74,T,,M,45.245,N,83
#
.793,K,A*2B
$GNGGA,074505.00,5053.54576,N,00401.95811,E,1,04,3.66,41.9,M,46.1,M,,*7E
$GNGSA,A,3,05,13,15,23,,,,,,,,,4.63,3.66,2.83*15
$GNGSA,A,3,,,,,,,,,,,,,4.63,3.66,2.83*17
$GPGSV,2,1,07,02,01,258,21,05,40,206,22,13,87,346,25,15,57,292,13*71
$GPGSV,2,2,07,20,14,186,19,23,16,322,16,24,15,254,24*4B
$GLGSV,1,1,00*65
$GNGLL,5053.54576,N,00401.95811,E,074505.00,A,A*73

#
$GNRMC,074506.00,V,,,,,,,120223,,,N*63
$GNVTG,,,,,,,,,N*2E
$GNGGA,074506.00,,,,,0,03,3.16,,,,,,*4F
$GNGSA,A,1
#
,05,13,23,,,,,,,,,,3.32,3.16,1.00*1F
$GNGSA,A,1,,,,,,,,,,,,,3.32,3.16,1.00*19
$GPGSV,2,1,07,02,01,258,21,05,40,206,21,13,87,346,25,15,57,292,08*78
$GPGSV,2,2,07,20,14,186,20,23,16,322,14,24,15,254,24*43
$GLGSV,1,1,00*65
$GNGLL,,,,,074506.00,V,N*54

#
$GNRMC,074507.00,V,,,,,,,120223,,,N*62
$GNVTG,,,,,,,,,N*2E
$GNGGA,074507.00,,,,,0,00,99.99,,,,,,*79
$GNGSA,
#
A,1,,,,,,,,,,,,,99.99,99.99,99.99*2E
$GNGSA,A,1,,,,,,,,,,,,,99.99,99.99,99.99*2E
$GPGSV,2,1,07,02,01,258,20,05,40,206,19,13,87,346,23,15,57,292,08*74
$GPGSV,2,2,07,20,14,186,19,23,16,322,10,24,15,254,22*4B
$GLGSV,1,1,00*65
$GNGLL,,,,,074507.00,V,N*55

#
$GNRMC,074508.00,V,,,,,,,120223,,,N*6D
$GNVTG,,,,,,,,,N*2E
$GNGGA,074508.00,,,,,0,00,99.99,,,,,,*76
$GNGSA,A
#
,1,,,,,,,,,,,,,99.99,99.99,99.99*2E
$GNGSA,A,1,,,,,,,,,,,,,99.99,99.99,99.99*2E
$GPGSV,2,1,07,02,01,258,17,05,40,206,18,13,87,346,24,15,57,292,*7E
$GPGSV,2,2,07,20,14,186,20,23,16,322,08,24,15,254,21*4B
$GLGSV,1,1,00*65
$GNGLL,,,,,074508.00,V,N*5A

#
$GNRMC,074509.00,V,,,,,,,120223,,,N*6C
$GNVTG,,,,,,,,,N*2E
$GNGGA,074509.00,,,,,0,00,99.99,,,,,,*77
$GNGSA,A,
#
1,,,,,,,,,,,,,99.99,99.99,99.99*2E
$GNGSA,A,1,,,,,,,,,,,,,99.99,99.99,99.99*2E
$GPGSV,2,1,07,02,01,258,14,05,40,206,18,13,87,346,24,15,57,292,*7D
$GPGSV,2,2,07,20,14,186,20,23,16,322,,24,15,254,18*49
$GLGSV,1,1,00*65
$GNGLL,,,,,074509.00,V,N*5B

#
$GNRMC,074510.00,V,,,,,,,120223,,,N*64
$GNVTG,,,,,,,,,N*2E
$GNGGA,074510.00,,,,,0,00,99.99,,,,,,*7F
$GNGSA,A,1,,,,,,,,,,,,,99.99
#
,99.99,99.99*2E
$GNGSA,A,1,,,,,,,,,,,,,99.99,99.99,99.99*2E
$GPGSV,2,1,07,02,01,258,,05,40,206,18,13,87,346,25,15,57,292,*79
$GPGSV,2,2,07,20,14,186,21,23,16,322,,24,15,254,15*45
$GLGSV,1,1,00*65
$GNGLL,,,,,074510.00,V,N*53

#
$GNRMC,074511.00,V,,,,,,,120223,,,N*65
$GNVTG,,,,,,,,,N*2E
$GNGGA,074511.00,,,,,0,00,99.99,,,,,,*7E
$GNGSA,A,1,,,,,,,,,,,,,99.99,99.99
#
,99.99*2E
$GNGSA,A,1,,,,,,,,,,,,,99.99,99.99,99.99*2E
$GPGSV,2,1,07,02,01,258,,05,40,206,19,13,87,346,25,15,57,292,*78
$GPGSV,2,2,07,20,14,186,21,23,16,322,,24,15,254,12*42
$GLGSV,1,1,00*65
$GNGLL,,,,,074511.00,V,N*52

#
$GNRMC,074512.00,V,,,,,,,120223,,,N*66
$GNVTG,,,,,,,,,N*2E
$GNGGA,074512.00,,,,,0,00,99.99,,,,,,*7D
$GNGSA,A,1,,,,,,,,,,,,,99.99,9
#
9.99,99.99*2E
$GNGSA,A,1,,,,,,,,,,,,,99.99,99.99,99.99*2E
$GPGSV,2,1,07,02,01,258,,05,40,206,18,13,87,346,24,15,57,292,*78
$GPGSV,2,2,07,20,14,186,20,23,16,322,,24,15,254,09*49
$GLGSV,1,1,00*65
$GNGLL,,,,,074512.00,V,N*51

#
$GNRMC,074513.00,V,,,,,,,120223,,,N*67
$GNVTG,,,,,,,,,N*2E
$GNGGA,074513.00,,,,,0,00,99.99,,,,,,*7C
$GNGSA,A,1,,,,,,,,,,,,,99.99,99
#
.99,99.99*2E
$GNGSA,A,1,,,,,,,,,,,,,99.99,99.99,99.99*2E
$GPGSV,2,1,07,02,01,258,,05,40,206,18,13,87,346,24,15,57,292,*78
$GPGSV,2,2,07,20,14,186,21,23,16,322,,24,15,254,10*40
$GLGSV,1,1,00*65
$GNGLL,,,,,074513.00,V,N*50

#
$GNRMC,074514.00,V,,,,,,,120223,,,N*60
$GNVTG,,,,,,,,,N*2E
$GNGGA,074514.00,,,,,0,00,99.99,,,,,,*7B
$GNGSA,A,1,,,,,,,,,,,,,99.99,9
#
9.99,99.99*2E
$GNGSA,A,1,,,,,,,,,,,,,99.99,99.99,99.99*2E
$GPGSV,2,1,07,02,01,258,,05,40,206,16,13,87,346,24,15,57,292,*76
$GPGSV,2,2,07,20,14,186,20,23,16,322,,24,15,254,10*41
$GLGSV,1,1,00*65
$GNGLL,,,,,074514.00,V,N*57

#
$GNRMC,074515.00,V,,,,,,,120223,,,N*61
$GNVTG,,,,,,,,,N*2E
$GNGGA,074515.00,,,,,0,00,99.99,,,,,,*7A
$GNGSA,A,1,,,,,,,,,,,,,99.99,99
#
.99,99.99*2E
$GNGSA,A,1,,,,,,,,,,,,,99.99,99.99,99.99*2E
$GPGSV,2,1,07,02,01,258,,05,40,206,16,13,87,346,24,15,57,292,*76
$GPGSV,2,2,07,20,14,186,20,23,16,322,,24,15,254,11*40
$GLGSV,1,1,00*65
$GNGLL,,,,,074515.00,V,N*56

#
$GNRMC,074516.00,V,,,,,,,120223,,,N*62
$GNVTG,,,,,,,,,N*2E
$GNGGA,074516.00,,,,,0,00,99.99,,,,,,*79
$GNGSA,A,1,,,,,,,,,,,,,99.99,99.99,99
#
.99*2E
$GNGSA,A,1,,,,,,,,,,,,,99.99,99.99,99.99*2E
$GPGSV,2,1,07,02,01,258,,05,40,206,15,13,87,346,24,15,57,292,*75
$GPGSV,2,2,07,20,14,186,20,23,16,322,,24,15,254,09*49
$GLGSV,1,1,00*65
$GNGLL,,,,,074516.00,V,N*55

#
$GNRMC,074517.00,V,,,,,,,120223,,,N*63
$GNVTG,,,,,,,,,N*2E
$GNGGA,074517.00,,,,,0,00,99.99,,,,,,*78
$GNGSA,A,1,,,,,,,,,,,,,99.99,99.99,
#
99.99*2E
$GNGSA,A,1,,,,,,,,,,,,,99.99,99.99,99.99*2E
$GPGSV,2,1,07,02,01,258,,05,40,206,15,13,87,346,24,15,57,292,*75
$GPGSV,2,2,07,20,14,186,21,23,16,322,,24,15,254,09*48
$GLGSV,1,1,00*65
$GNGLL,,,,,074517.00,V,N*54

#
$GNRMC,074518.00,V,,,,,,,120223,,,N*6C
$GNVTG,,,,,,,,,N*2E
$GNGGA,074518.00,,,,,0,00,99.99,,,,,,*77
$GNGSA,A,1,,,,,,,,,,,,,99.99,99.99,9
#
9.99*2E
$GNGSA,A,1,,,,,,,,,,,,,99.99,99.99,99.99*2E
$GPGSV,2,1,07,02,01,258,,05,40,206,15,13,87,346,25,15,57,292,*74
$GPGSV,2,2,07,20,14,186,21,23,16,322,,24,15,254,10*40
$GLGSV,1,1,00*65
$GNGLL,,,,,074518.00,V,N*5B

#
$GNRMC,074519.00,V,,,,,,,120223,,,N*6D
$GNVTG,,,,,,,,,N*2E
$GNGGA,074519.00,,,,,0,00,99.99,,,,,,*76
$GNGSA,A,1,,,,,,,,,,,,,99.99,99.99,99
#
.99*2E
$GNGSA,A,1,,,,,,,,,,,,,99.99,99.99,99.99*2E
$GPGSV,2,1,07,02,01,258,,05,40,206,13,13,87,346,24,15,57,292,*73
$GPGSV,2,2,07,20,14,186,21,23,16,322,,24,15,254,11*41
$GLGSV,1,1,00*65
$GNGLL,,,,,074519.00,V,N*5A

#
$GNRMC,074520.00,V,,,,,,,120223,,,N*67
$GNVTG,,,,,,,,,N*2E
$GNGGA,074520.00,,,,,0,00,99.99,,,,,,*7C
$GNGSA,A,1,,,,,,,,,,,,,99.99,99.99,99.
#
99*2E
$GNGSA,A,1,,,,,,,,,,,,,99.99,99.99,99.99*2E
$GPGSV,2,1,07,02,01,258,,05,40,206,10,13,87,346,24,15,57,292,*70
$GPGSV,2,2,07,20,14,186,21,23,16,322,,24,15,254,11*41
$GLGSV,1,1,00*65
$GNGLL,,,,,074520.00,V,N*50

#
$GNRMC,074521.00,V,,,,,,,120223,,,N*66
$GNVTG,,,,,,,,,N*2E
$GNGGA,074521.00,,,,,0,00,99.99,,,,,,*7D
$GNGSA,A,1,,,,,,,,,,,,,99.99,99.99,99.99*2E
#

$GNGSA,A,1,,,,,,,,,,,,,99.99,99.99,99.99*2E
$GPGSV,2,1,07,02,01,258,,05,40,206,13,13,87,346,24,15,57,292,*73
$GPGSV,2,2,07,20,14,186,20,23,16,322,,24,15,254,10*41
$GLGSV,1,1,00*65
$GNGLL,,,,,074521.00,V,N*51

#
$GNRMC,074522.00,V,,,,,,,120223,,,N*65
$GNVTG,,,,,,,,,N*2E
$GNGGA,074522.00,,,,,0,00,99.99,,,,,,*7E
$GNGSA,A,1,,,,,,,,,,,,,99.99,99.99,99.9
#
9*2E
$GNGSA,A,1,,,,,,,,,,,,,99.99,99.99,99.99*2E
$GPGSV,2,1,07,02,01,258,,05,40,206,14,13,87,349,25,15,57,292,*7A
$GPGSV,2,2,07,20,14,186,20,23,16,322,,24,15,254,09*49
$GLGSV,1,1,00*65
$GNGLL,,,,,074522.00,V,N*52

#
$GNRMC,074523.00,V,,,,,,,120223,,,N*64
$GNVTG,,,,,,,,,N*2E
$GNGGA,074523.00,,,,,0,00,99.99,,,,,,*7F
$GNGSA,A,1,,,,,,,,,,,,,99.99,99.99,99.9
#
9*2E
$GNGSA,A,1,,,,,,,,,,,,,99.99,99.99,99.99*2E
$GPGSV,2,1,07,02,01,258,,05,40,206,13,13,87,349,25,15,57,292,*7D
$GPGSV,2,2,07,20,14,186,20,23,16,322,,24,15,254,10*41
$GLGSV,1,1,00*65
$GNGLL,,,,,074523.00,V,N*53

#
$GNRMC,074524.00,V,,,,,,,120223,,,N*63
$GNVTG,,,,,,,,,N*2E
$GNGGA,074524.00,,,,,0,00,99.99,,,,,,*78
$GNGSA,A,1,,,,,,,,,,,,,99.99,99.99,99.99
#
*2E
$GNGSA,A,1,,,,,,,,,,,,,99.99,99.99,99.99*2E
$GPGSV,2,1,07,02,01,258,,05,40,206,12,13,87,349,25,15,57,292,*7C
$GPGSV,2,2,07,20,14,186,21,23,16,322,,24,15,254,08*49
$GLGSV,1,1,00*65
$GNGLL,,,,,074524.00,V,N*54

#
$GNRMC,074525.00,V,,,,,,,120223,,,N*62
$GNVTG,,,,,,,,,N*2E
$GNGGA,074525.00,,,,,0,00,99.99,,,,,,*79
$GNGSA,A,1,,,,,,,,,,,,,99.99,99.99,99.99*2E
$GNGSA,A,1,,,,,,,,,,,,,99.99,99.99,99.99*2E
$GPGSV,2,1,07,02,01,258,,05,40,206,14,13
#
,87,349,25,15,57,292,*7A
$GPGSV,2,2,07,20,14,186,20,23,16,322,,24,15,254,09*49
$GLGSV,1,1,00*65
$GNGLL,,,,,074525.00,V,N*55

#
$GNRMC,074526.00,V,,,,,,,120223,,,N*61
$GNVTG,,,,,,,,,N*2E
$GNGGA,074526.00,,,,,0,00,99.99,,,,,,*7A
$GNGSA,A,1,,,,,,,,,,,,,99.99,99.99,99.99*2E
$GNGSA,A,1,,,,,,,,,,,,,99.99,99.99,99.99*2E
$GPGSV,2,1,07,02,01,258,,05,40,206,14,13,87,3
#
49,25,15,57,292,*7A
$GPGSV,2,2,07,20,14,186,21,23,16,322,,24,15,254,13*43
$GLGSV,1,1,00*65
$GNGLL,,,,,074526.00,V,N*56

#
$GNRMC,074527.00,V,,,,,,,120223,,,N*60
$GNVTG,,,,,,,,,N*2E
$GNGGA,074527.00,,,,,0,00,99.99,,,,,,*7B
$GNGSA,A,1,,,,,,,,,,,,,99.99,99.99,99.99*2E
$GNGSA,A,1,,,,,,,,,,,,,99.99,99.99,99.99*2E
$GPGSV,2,1,07,02,01,258,,05,40,206,13,13,87,349,25,15,57,292,*7D
$GPG
#
SV,2,2,07,20,14,186,21,23,16,322,,24,15,254,13*43
$GLGSV,1,1,00*65
$GNGLL,,,,,074527.00,V,N*57

#
$GNRMC,074528.00,V,,,,,,,120223,,,N*6F
$GNVTG,,,,,,,,,N*2E
$GNGGA,074528.00,,,,,0,00,99.99,,,,,,*74
$GNGSA,A,1,,,,,,,,,,,,,99.99,99.99,99.99*2E
$GNGSA,A,1,,,,,,,,,,,,,99.99,99.99,99.99*2E
$GPGSV,2,1,07,02,01,258,,05,40,206,12,13,87,349,25,15,57,292,*7C
$GPGSV
#
,2,2,07,20,14,186,21,23,16,322,,24,15,254,11*41
$GLGSV,1,1,00*65
$GNGLL,,,,,074528.00,V,N*58

#
$GNRMC,074529.00,V,,,,,,,120223,,,N*6E
$GNVTG,,,,,,,,,N*2E
$GNGGA,074529.00,,,,,0,00,99.99,,,,,,*75
$GNGSA,A,1,,,,,,,,,,,,,99.99,99.99,99.99*2E
$GNGSA,A,1,,,,,,,,,,,,,99.99,99.99,99.99*2E
$GPGSV,2,1,07,02,01,258,,05,40,206,11,13,87,349,25,15,57,292,*7F
$GPGSV
#
,2,2,07,20,14,186,21,23,16,322,,24,15,254,11*41
$GLGSV,1,1,00*65
$GNGLL,,,,,074529.00,V,N*59

#
$GNRMC,074530.00,V,,,,,,,120223,,,N*66
$GNVTG,,,,,,,,,N*2E
$GNGGA,074530.00,,,,,0,00,99.99,,,,,,*7D
$GNGSA,A,1,,,,,,,,,,,,,99.99,99.99,99.99*2E
$GNGSA,A,1,,,,,,,,,,,,,99.99,99.99,99.99*2E
$GPGSV,2,1,07,02,01,258,,05,40,206,11,13,87,349,25,15,57,292,*7F
$GPGSV,
#
2,2,07,20,14,186,21,23,16,322,,24,15,254,12*42
$GLGSV,1,1,00*65
$GNGLL,,,,,074530.00,V,N*51

#
$GNRMC,074531.00,V,,,,,,,120223,,,N*67
$GNVTG,,,,,,,,,N*2E
$GNGGA,074531.00,,,,,0,00,99.99,,,,,,*7C
$GNGSA,A,1,,,,,,,,,,,,,99.99,99.99,99.99*2E
$GNGSA,A,1,,,,,,,,,,,,,99.99,99.99,99.99*2E
$GPGSV,2,1,07,02,01,258,,05,40,206,13,13,87,349,25,15,57,292,*7D
$GPGSV,2,2,07,20,14,186,21
#
,23,16,322,,24,15,254,14*44
$GLGSV,1,1,00*65
$GNGLL,,,,,074531.00,V,N*50

#
$GNRMC,074532.00,V,,,,,,,120223,,,N*64
$GNVTG,,,,,,,,,N*2E
$GNGGA,074532.00,,,,,0,00,99.99,,,,,,*7F
$GNGSA,A,1,,,,,,,,,,,,,99.99,99.99,99.99*2E
$GNGSA,A,1,,,,,,,,,,,,,99.99,99.99,99.99*2E
$GPGSV,2,1,07,02,01,258,,05,40,206,16,13,87,349,24,15,57,292,*79
$GPGSV,2,2,07,20,14,186,21,2
#
3,16,322,,24,15,254,13*43
$GLGSV,1,1,00*65
$GNGLL,,,,,074532.00,V,N*53

#
$GNRMC,074533.00,V,,,,,,,120223,,,N*65
$GNVTG,,,,,,,,,N*2E
$GNGGA,074533.00,,,,,0,00,99.99,,,,,,*7E
$GNGSA,A,1,,,,,,,,,,,,,99.99,99.99,99.99*2E
$GNGSA,A,1,,,,,,,,,,,,,99.99,99.99,99.99*2E
$GPGSV,2,1,07,02,01,258,,05,40,206,18,13,87,349,24,15,57,292,*77
$GPGSV,2,2,07,20,14,186,22,23,
#
16,322,,24,15,254,13*40
$GLGSV,1,1,00*65
$GNGLL,,,,,074533.00,V,N*52

#
$GNRMC,074534.00,V,,,,,,,120223,,,N*62
$GNVTG,,,,,,,,,N*2E
$GNGGA,074534.00,,,,,0,00,99.99,,,,,,*79
$GNGSA,A,1,,,,,,,,,,,,,99.99,99.99,99.99*2E
$GNGSA,A,1,,,,,,,,,,,,,99.99,99.99,99.99*2E
$GPGSV,2,1,07,02,01,258,,05,40,206,20,13,87,349,23,15,57,292,*7B
$GPGSV,2,2,07,20,14,186,22,23,1
#
6,322,,24,15,254,12*41
$GLGSV,1,1,00*65
$GNGLL,,,,,074534.00,V,N*55

#
$GNRMC,074535.00,V,,,,,,,120223,,,N*63
$GNVTG,,,,,,,,,N*2E
$GNGGA,074535.00,,,,,0,00,99.99,,,,,,*78
$GNGSA,A,1,,,,,,,,,,,,,99.99,99.99,99.99*2E
$GNGSA,A,1,,,,,,,,,,,,,99.99,99.99,99.99*2E
$GPGSV,2,1,07,02,01,258,,05,40,206,20,13,87,349,23,15,57,292,*7B
$GPGSV,2,2,07,20,14,186,22,23,1
#
6,322,,24,15,254,10*43
$GLGSV,1,1,00*65
$GNGLL,,,,,074535.00,V,N*54

#
$GNRMC,074536.00,V,,,,,,,120223,,,N*60
$GNVTG,,,,,,,,,N*2E
$GNGGA,074536.00,,,,,0,00,99.99,,,,,,*7B
$GNGSA,A,1,,,,,,,,,,,,,99.99,99.99,99.99*2E
$GNGSA,A,1,,,,,,,,,,,,,99.99,99.99,99.99*2E
$GPGSV,2,1,07,02,01,258,,05,40,206,21,13,87,349,23,15,57,292,*7A
$GPGSV,2,2,07,20,14,186,22,23,16,322,,
#
24,15,254,10*43
$GLGSV,1,1,00*65
$GNGLL,,,,,074536.00,V,N*57

#
$GNRMC,074537.00,V,,,,,,,120223,,,N*61
$GNVTG,,,,,,,,,N*2E
$GNGGA,074537.00,,,,,0,00,99.99,,,,,,*7A
$GNGSA,A,1,,,,,,,,,,,,,99.99,99.99,99.99*2E
$GNGSA,A,1,,,,,,,,,,,,,99.99,99.99,99.99*2E
$GPGSV,2,1,07,02,01,258,,05,40,206,21,13,87,349,23,15,57,292,*7A
